     2.10           OBSERVATION DATA    M                   RINEX VERSION / TYPE
OSPtoRINEX          FC                  20150130 205619 LCL PGM / RUN BY / DATE 
CumbreIGN                                                   MARKER NAME         
VG55889                                                     MARKER NUMBER       
N/A                 N/A                                     OBSERVER / AGENCY   
GSD4e_4.0.4-P1 08/13SiRFIV              GSD4e_4.0.4-P1 08/13REC # / TYPE / VERS 
N/A                 UNKNOWN                                 ANT # / TYPE        
  4846255.0000  -330728.0000  4120734.0000                  APPROX POSITION XYZ 
        0.0000        0.0000        0.0000                  ANTENNA: DELTA H/E/N
     1     0     0                                          WAVELENGTH FACT L1/2
     4    C1    L1    D1    S1                              # / TYPES OF OBSERV 
     1.000                                                  INTERVAL            
  2014    01    11    12    18   47.0000000     GPS         TIME OF FIRST OBS   
                                                            END OF HEADER       
 14 01 11 12 18 47.0000000  0 10G01G04G10G11G13G17G20G23G31G32       0.099393281
  22526141.708 7 118375695.646 7     96211.940          44.000  
  21934989.048 7 115269215.446 7     90637.117          46.000  
  23390301.261 7 122916995.740 7     90480.739          43.000  
  24982880.855 6 131285921.999 6     97075.470          37.000  
  21164919.446 7 111222493.375 7     90921.002          46.000  
  21622104.644 7 113624921.808 7     94432.330          46.000  
  20938279.430 7 110031484.053 7     95012.139          45.000  
  20508580.498 7 107773374.925 7     93235.229          46.000  
  24802297.337 6 130336984.207 6     95013.217          39.000  
  24211418.982 6 127231862.495 6     96189.791          41.000  
 14 01 11 12 18 48.0000000  0 10G01G04G10G11G13G17G20G23G31G32       0.099452545
  22526684.041 7 118378547.623 7     96212.412          44.000  
  21934470.808 7 115266492.076 7     90637.692          46.000  
  23389753.650 7 122914116.024 7     90480.749          43.000  
  24983591.432 6 131289637.107 6     97075.182          37.000  
  21164455.220 7 111220053.849 7     90921.536          46.000  
  21622308.881 7 113625994.083 7     94433.100          46.000  
  20938593.931 7 110033135.765 7     95012.571          45.000  
  20508556.331 7 107773249.927 7     93236.030          46.000  
  24802612.003 6 130338637.788 6     95014.100          39.000  
  24211960.065 6 127234691.908 6     96189.945          41.000  
 14 01 11 12 18 49.0000000  0 10G01G04G10G11G13G17G20G23G31G32       0.099511809
  22527227.073 7 118381400.276 7     96213.326          44.000  
  21933952.500 7 115263769.350 7     90638.020          46.000  
  23389207.480 7 122911236.880 7     90481.539          43.000  
  24984297.529 6 131293352.675 6     97076.722          37.000  
  21163991.154 7 111217615.167 7     90922.069          46.000  
  21622514.260 7 113627067.355 7     94433.932          46.000  
  20938908.743 7 110034788.112 7     95012.725          45.000  
  20508532.720 7 107773125.848 7     93236.615          46.000  
  24802928.356 6 130340292.233 6     95014.500          39.000  
  24212498.557 6 127237521.702 6     96190.396          41.000  
 14 01 11 12 18 50.0000000  0 10G01G04G10G11G13G17G20G23G31G32       0.099571072
  22527770.870 7 118384254.946 7     96213.500          44.000  
  21933435.716 7 115261048.631 7     90638.103          46.000  
  23388657.857 7 122908359.595 7     90481.806          43.000  
  24985001.293 6 131297069.978 6     97075.829          37.000  
  21163528.082 7 111215178.706 7     90922.654          46.000  
  21622718.751 7 113628142.962 7     94434.352          46.000  
  20939223.360 7 110036442.438 7     95013.176          45.000  
  20508510.308 7 107773004.071 7     93237.210          46.000  
  24803240.586 6 130341949.013 6     95015.342          39.000  
  24213036.798 6 127240353.174 6     96189.914          41.000  
 14 01 11 12 18 51.0000000  0 10G01G04G10G11G13G17G20G23G31G32       0.099630333
  22528314.370 7 118387113.062 7     96213.818          44.000  
  21932918.639 7 115258331.375 7     90638.575          46.000  
  23388111.526 7 122905485.603 7     90481.642          43.000  
  24985708.144 6 131300790.504 6     97076.116          37.000  
  21163064.371 7 111212745.889 7     90923.168          46.000  
  21622923.958 7 113629222.336 7     94435.194          46.000  
  20939539.197 7 110038100.169 7     95013.351          45.000  
  20508486.701 7 107772886.014 7     93238.001          46.000  
  24803557.126 6 130343609.439 6     95016.204          39.000  
  24213575.075 6 127243187.838 6     96189.914          41.000  
 14 01 11 12 18 52.0000000  0 10G01G04G10G11G13G17G20G23G31G32       0.099689594
  22528856.951 7 118389971.343 7     96214.003          44.000  
  21932401.209 7 115255614.258 7     90638.657          46.000  
  23387565.393 7 122902611.658 7     90482.135          43.000  
  24986419.727 6 131304510.898 6     97075.500          37.000  
  21162600.916 7 111210313.414 7     90923.722          46.000  
  21623128.878 7 113630302.198 7     94435.830          46.000  
  20939854.868 7 110039758.034 7     95013.833          45.000  
  20508464.890 7 107772768.399 7     93238.421          46.000  
  24803872.600 6 130345270.267 6     95016.851          39.000  
  24214115.614 6 127246022.393 6     96190.273          41.000  
 14 01 11 12 18 53.0000000  0 10G01G04G10G11G13G17G20G23G31G32       0.099748858
  22529401.134 7 118392825.041 7     96213.941          44.000  
  21931884.808 7 115252892.558 7     90638.708          46.000  
  23387019.686 7 122899732.947 7     90482.432          43.000  
  24987127.153 6 131308226.447 6     97075.090          37.000  
  21162137.385 7 111207876.543 7     90923.907          46.000  
  21623332.604 7 113631377.782 7     94436.025          47.000  
  20940168.513 7 110041411.247 7     95013.474          45.000  
  20508441.872 7 107772646.441 7     93238.493          46.000  
  24804188.764 6 130346926.724 6     95017.128          39.000  
  24214653.884 6 127248852.022 6     96189.883          41.000  
 14 01 11 12 18 54.0000000  0 10G01G04G10G11G13G17G20G23G31G32       0.099808120
  22529944.852 7 118395682.301 7     96214.321          44.000  
  21931367.180 7 115250174.404 7     90639.375          46.000  
  23386470.824 7 122896857.660 7     90481.734          43.000  
  24987832.550 6 131311945.334 6     97076.188          37.000  
  21161675.520 7 111205443.429 7     90924.779          46.000  
  21623539.160 7 113632457.243 7     94436.908          46.000  
  20940483.780 7 110043067.988 7     95013.874          45.000  
  20508419.968 7 107772528.333 7     93239.283          46.000  
  24804505.270 6 130348586.973 6     95017.620          39.000  
  24215192.778 6 127251684.929 6     96190.232          41.000  
 14 01 11 12 18 55.0000000  0 10G01G04G10G11G13G17G20G23G31G32       0.099867383
  22530488.325 7 118398538.269 7     96214.824          44.000  
  21930847.977 7 115247454.973 7     90639.570          46.000  
  23385924.548 7 122893980.957 7     90482.412          43.000  
  24988537.840 6 131315662.658 6     97075.511          37.000  
  21161212.871 7 111203009.190 7     90924.707          46.000  
  21623743.439 7 113633535.734 7     94437.237          47.000  
  20940799.366 7 110044723.406 7     95014.644          45.000  
  20508397.106 7 107772409.193 7     93239.704          46.000  
  24804819.109 6 130350246.205 6     95018.277          38.000  
  24215730.609 6 127254516.246 6     96189.935          41.000  
 14 01 11 12 18 56.0000000  0 10G01G04G10G11G13G17G20G23G31G32       0.099926647
  22531031.010 7 118401393.097 7     96215.153          44.000  
  21930331.598 7 115244734.380 7     90639.950          46.000  
  23385376.695 7 122891102.972 7     90482.884          43.000  
  24989249.907 6 131319378.594 6     97075.593          37.000  
  21160749.474 7 111200574.021 7     90925.436          46.000  
  21623949.656 7 113634613.415 7     94438.283          47.000  
  20941113.772 7 110046377.619 7     95014.675          45.000  
  20508374.649 7 107772289.179 7     93240.525          46.000  
  24805132.772 6 130351904.519 6     95019.263          38.000  
  24216267.406 6 127257346.136 6     96190.047          41.000  
 14 01 11 12 18 57.0000000  0 10G01G04G10G11G13G17G20G23G31G32       0.099985906
  22531574.664 7 118404256.018 7     96215.029          44.000  
  21929815.238 7 115242021.894 7     90640.432          46.000  
  23384828.071 7 122888232.931 7     90482.935          43.000  
  24989960.803 6 131323102.379 6     97076.517          37.000  
  21160287.466 7 111198147.153 7     90926.103          46.000  
  21624155.761 7 113635699.503 7     94438.632          47.000  
  20941430.090 7 110048039.879 7     95014.459          45.000  
  20508353.213 7 107772177.531 7     93240.813          46.000  
  24805450.114 6 130353571.158 6     95019.211          38.000  
  24216810.256 6 127260183.833 6     96190.253          41.000  
 14 01 11 12 18 58.0000000  0 10G01G04G10G11G13G17G20G23G31G32       0.000045171
  22532118.671 7 118407109.798 7     96215.830          44.000  
  21929297.322 7 115239300.222 7     90640.751          46.000  
  23384282.413 7 122885353.482 7     90482.597          43.000  
  24990663.813 6 131326816.722 6     97075.839          37.000  
  21159823.558 7 111195711.300 7     90926.575          46.000  
  21624360.943 7 113636776.741 7     94439.402          47.000  
  20941743.706 7 110049692.941 7     95014.911          45.000  
  20508329.892 7 107772056.983 7     93241.880          46.000  
  24805767.278 6 130355228.870 6     95019.889          38.000  
  24217347.496 6 127263012.045 6     96190.089          41.000  
 14 01 11 12 18 59.0000000  0 10G01G04G10G11G13G17G20G23G31G32       0.000104433
  22532662.687 7 118409968.620 7     96215.748          44.000  
  21928780.939 7 115236583.611 7     90640.751          46.000  
  23383734.481 7 122882479.079 7     90483.469          43.000  
  24991371.361 6 131330535.909 6     97075.932          37.000  
  21159362.364 7 111193280.711 7     90926.688          46.000  
  21624567.532 7 113637859.374 7     94439.967          47.000  
  20942059.616 7 110051351.063 7     95015.527          45.000  
  20508308.348 7 107771941.768 7     93241.962          46.000  
  24806085.453 6 130356891.890 6     95020.545          38.000  
  24217886.405 6 127265845.034 6     96189.709          41.000  
 14 01 11 12 18 59.9999999  0 10G01G04G10G11G13G17G20G23G31G32       0.000163696
  22533205.681 7 118412826.072 7     96216.353          44.000  
  21928263.530 7 115233865.610 7     90641.058          46.000  
  23383189.101 7 122879603.089 7     90482.792          43.000  
  24992080.498 6 131334253.450 6     97075.849          37.000  
  21158899.796 7 111190848.897 7     90926.780          46.000  
  21624774.295 7 113638940.923 7     94440.562          47.000  
  20942374.865 7 110053007.705 7     95015.609          45.000  
  20508286.015 7 107771825.406 7     93242.445          46.000  
  24806399.979 6 130358553.733 6     95020.638          38.000  
  24218426.323 6 127268676.323 6     96189.965          41.000  
 14 01 11 12 19  0.9999999  0 10G01G04G10G11G13G17G20G23G31G32       0.000222958
  22533750.529 7 118415685.266 7     96216.405          44.000  
  21927746.833 7 115231149.348 7     90641.366          46.000  
  23382640.420 7 122876728.748 7     90483.541          43.000  
  24992791.058 6 131337972.468 6     97076.547          37.000  
  21158436.461 7 111188419.059 7     90927.971          46.000  
  21624979.361 7 113640024.549 7     94441.178          46.000  
  20942690.057 7 110054666.050 7     95015.824          45.000  
  20508264.642 7 107771711.090 7     93243.132          46.000  
  24806717.933 6 130360217.596 6     95021.120          38.000  
  24218964.618 6 127271509.080 6     96189.750          41.000  
 14 01 11 12 19  2.0000000  0 10G01G04G10G11G13G17G20G23G31G32       0.000282219
  22534294.969 7 118418546.320 7     96216.743          44.000  
  21927230.106 7 115228434.929 7     90641.695          46.000  
  23382092.628 7 122873856.080 7     90483.479          43.000  
  24993496.211 6 131341693.073 6     97076.280          37.000  
  21157975.033 7 111185991.237 7     90928.248          46.000  
  21625186.359 7 113641110.334 7     94441.681          46.000  
  20943006.546 7 110056326.214 7     95016.040          45.000  
  20508241.385 7 107771598.870 7     93243.717          46.000  
  24807034.380 6 130361883.533 6     95021.839          38.000  
  24219503.398 6 127274343.388 6     96189.986          41.000  
 14 01 11 12 19  2.9999999  0 10G01G04G10G11G13G17G20G23G31G32       0.000341483
  22534838.573 7 118421402.976 7     96217.010          44.000  
  21926712.921 7 115225716.104 7     90641.972          46.000  
  23381549.111 7 122870978.882 7     90483.048          43.000  
  24994204.861 6 131345409.056 6     97076.034          37.000  
  21157512.043 7 111183559.209 7     90928.967          46.000  
  21625391.252 7 113642192.050 7     94442.163          46.000  
  20943322.382 7 110057981.942 7     95016.173          45.000  
  20508220.959 7 107771482.534 7     93244.456          46.000  
  24807350.228 6 130363545.327 6     95022.095          37.000  
  24220041.852 6 127277172.983 6     96189.924          41.000  
 14 01 11 12 19  3.9999999  0 10G01G04G10G11G13G17G20G23G31G32       0.000400745
  22535382.268 7 118424263.112 7     96217.462          44.000  
  21926196.400 7 115223000.769 7     90642.629          46.000  
  23380999.002 7 122868105.040 7     90483.756          43.000  
  24994908.986 6 131349128.255 6     97075.962          37.000  
  21157049.757 7 111181130.878 7     90929.644          46.000  
  21625597.249 7 113643277.570 7     94443.169          46.000  
  20943638.109 7 110059641.098 7     95016.430          45.000  
  20508198.199 7 107771369.928 7     93244.990          46.000  
  24807664.878 6 130365210.824 6     95022.896          37.000  
  24220581.487 6 127280005.784 6     96190.366          41.000  
 14 01 11 12 19  4.9999999  0 10G01G04G10G11G13G17G20G23G31G32       0.000460009
  22535926.941 7 118427120.390 7     96217.431          44.000  
  21925678.378 7 115220282.545 7     90642.177          46.000  
  23380450.032 7 122865228.183 7     90483.572          43.000  
  24995620.319 6 131352844.335 6     97075.418          37.000  
  21156587.911 7 111178699.862 7     90929.613          46.000  
  21625802.571 7 113644360.546 7     94443.549          46.000  
  20943953.095 7 110061297.359 7     95016.296          45.000  
  20508177.609 7 107771254.730 7     93245.247          46.000  
  24807980.940 6 130366873.739 6     95023.727          37.000  
  24221120.136 6 127282835.406 6     96189.555          41.000  
 14 01 11 12 19  5.9999999  0 10G01G04G10G11G13G17G20G23G31G32       0.000519272
  22536471.179 7 118429979.380 7     96217.719          44.000  
  21925161.633 7 115217566.032 7     90642.239          46.000  
  23379904.023 7 122862352.885 7     90483.151          43.000  
  24996327.555 6 131356561.888 6     97076.024          37.000  
  21156126.048 7 111176270.756 7     90930.332          46.000  
  21626010.182 7 113645445.553 7     94444.288          46.000  
  20944269.349 7 110062955.289 7     95016.317          45.000  
  20508155.874 7 107771141.512 7     93245.801          46.000  
  24808298.310 6 130368538.530 6     95023.809          37.000  
  24221657.539 6 127285666.478 6     96189.411          41.000  
 14 01 11 12 19  6.9999999  0 10G01G04G10G11G13G17G20G23G31G32       0.000578534
  22537016.151 7 118432840.226 7     96218.088          44.000  
  21924645.436 7 115214851.398 7     90642.814          45.000  
  23379357.198 7 122859479.301 7     90483.531          43.000  
  24997034.521 6 131360281.020 6     97076.311          37.000  
  21155663.813 7 111173843.694 7     90930.681          46.000  
  21626216.116 7 113646532.740 7     94444.801          46.000  
  20944584.999 7 110064615.040 7     95017.169          45.000  
  20508134.925 7 107771030.419 7     93246.632          46.000  
  24808614.381 6 130370205.496 6     95024.620          37.000  
  24222197.517 6 127288499.077 6     96189.493          41.000  
 14 01 11 12 19  7.9999999  0 10G01G04G10G11G13G17G20G23G31G32       0.000637792
  22537560.112 7 118435707.760 7     96218.365          44.000  
  21924128.797 7 115212143.440 7     90643.296          45.000  
  23378812.766 7 122856612.293 7     90484.300          43.000  
  24997743.668 6 131364006.611 6     97076.568          37.000  
  21155203.838 7 111171423.508 7     90931.225          46.000  
  21626422.999 7 113647626.920 7     94445.519          46.000  
  20944901.913 7 110066281.433 7     95017.733          45.000  
  20508114.537 7 107770926.279 7     93247.330          46.000  
  24808937.081 6 130371879.297 6     95024.682          37.000  
  24222737.192 6 127291338.090 6     96189.904          41.000  
 14 01 11 12 19  8.9999999  0 10G01G04G10G11G13G17G20G23G31G32       0.000697056
  22538104.994 7 118438566.136 7     96218.540          44.000  
  21923611.937 7 115209426.327 7     90643.768          45.000  
  23378264.849 7 122853735.966 7     90484.711          43.000  
  24998451.400 6 131367722.767 6     97076.691          37.000  
  21154740.256 7 111168994.367 7     90931.512          46.000  
  21626630.867 7 113648712.274 7     94445.868          46.000  
  20945216.315 7 110067938.629 7     95017.651          45.000  
  20508094.166 7 107770813.234 7     93247.669          46.000  
  24809256.003 6 130373544.243 6     95025.328          37.000  
  24223276.400 6 127294167.645 6     96189.955          41.000  
 14 01 11 12 19  9.9999999  0 10G01G04G10G11G13G17G20G23G31G32       0.000756317
  22538648.931 7 118441429.546 7     96219.084          44.000  
  21923094.884 7 115206714.190 7     90643.737          45.000  
  23377718.995 7 122850864.487 7     90484.639          43.000  
  24999160.800 6 131371443.690 6     97076.742          37.000  
  21154279.377 7 111166570.433 7     90932.220          46.000  
  21626838.985 7 113649802.940 7     94446.392          46.000  
  20945533.566 7 110069600.794 7     95018.000          45.000  
  20508073.087 7 107770705.459 7     93248.008          46.000  
  24809569.826 6 130375214.395 6     95026.078          37.000  
  24223816.306 6 127297001.873 6     96189.350          41.000  
 14 01 11 12 19 10.9999999  0 10G01G04G10G11G13G17G20G23G31G32       0.000815578
  22539195.211 7 118444293.267 7     96219.320          44.000  
  21922578.090 7 115204002.419 7     90644.466          45.000  
  23377172.039 7 122847993.211 7     90484.721          43.000  
  24999867.741 6 131375164.691 6     97076.168          37.000  
  21153818.406 7 111164147.016 7     90932.467          46.000  
  21627046.471 7 113650894.283 7     94447.305          46.000  
  20945849.349 7 110071263.246 7     95018.031          45.000  
  20508052.699 7 107770598.320 7     93248.747          46.000  
  24809888.340 6 130376885.195 6     95027.248          37.000  
  24224353.189 6 127299836.211 6     96189.729          41.000  
 14 01 11 12 19 11.9999999  0 10G01G04G10G11G13G17G20G23G31G32       0.000874840
  22539738.967 7 118447155.724 7     96219.638          44.000  
  21922062.381 7 115201289.354 7     90644.723          45.000  
  23376624.430 7 122845120.510 7     90484.762          43.000  
  25000571.534 6 131378884.144 6     97075.993          37.000  
  21153356.849 7 111161722.515 7     90933.011          46.000  
  21627253.959 7 113651984.644 7     94447.665          46.000  
  20946165.643 7 110072924.380 7     95018.585          45.000  
  20508032.685 7 107770490.146 7     93249.301          46.000  
  24810207.022 6 130378554.879 6     95027.432          37.000  
  24224892.049 6 127302668.941 6     96189.935          41.000  
 14 01 11 12 19 12.9999999  0 10G01G04G10G11G13G17G20G23G31G32       0.000934105
  22540284.146 7 118450013.660 7     96219.843          44.000  
  21921545.998 7 115198571.744 7     90644.599          45.000  
  23376077.835 7 122842243.133 7     90484.352          43.000  
  25001283.559 6 131382598.865 6     97076.106          37.000  
  21152894.844 7 111159293.665 7     90933.534          46.000  
  21627460.840 7 113653070.807 7     94448.414          46.000  
  20946482.587 7 110074580.931 7     95018.493          45.000  
  20508011.288 7 107770377.705 7     93249.588          46.000  
  24810523.558 6 130380220.289 6     95027.391          37.000  
  24225432.659 6 127305496.865 6     96189.955          41.000  
 14 01 11 12 19 13.9999999  0 10G01G04G10G11G13G17G20G23G31G32       0.000993366
  22540828.304 7 118452878.225 7     96220.038          44.000  
  21921029.741 7 115195860.792 7     90644.928          45.000  
  23375530.959 7 122839372.278 7     90485.050          43.000  
  25001991.269 6 131386319.903 6     97076.085          37.000  
  21152434.527 7 111156871.682 7     90933.904          46.000  
  21627669.045 7 113654163.933 7     94448.783          46.000  
  20946798.505 7 110076244.092 7     95018.985          45.000  
  20507990.065 7 107770272.175 7     93250.153          46.000  
  24810842.162 6 130381892.567 6     95027.987          37.000  
  24225971.616 6 127308331.102 6     96189.380          41.000  
 14 01 11 12 19 14.9999999  0 10G01G04G10G11G13G17G20G23G31G32       0.001052628
  22541374.131 7 118455741.569 7     96220.551          44.000  
  21920512.867 7 115193148.603 7     90645.236          45.000  
  23374984.390 7 122836500.039 7     90485.388          43.000  
  25002697.948 6 131390039.530 6     97077.348          37.000  
  21151972.867 7 111154448.641 7     90934.663          46.000  
  21627876.889 7 113655256.159 7     94449.779          46.000  
  20947115.132 7 110077905.980 7     95019.180          45.000  
  20507970.373 7 107770165.695 7     93251.251          46.000  
  24811159.823 6 130383563.882 6     95028.890          37.000  
  24226509.906 6 127311163.835 6     96189.678          41.000  
 14 01 11 12 19 15.9999999  0 10G01G04G10G11G13G17G20G23G31G32       0.001111891
  22541918.941 7 118458603.565 7     96220.705          44.000  
  21919997.063 7 115190435.031 7     90645.472          45.000  
  23374436.961 7 122833626.279 7     90485.409          43.000  
  25003401.842 6 131393757.514 6     97076.599          37.000  
  21151510.987 7 111152024.447 7     90934.848          46.000  
  21628084.154 7 113656347.347 7     94450.446          46.000  
  20947431.303 7 110079566.468 7     95019.252          45.000  
  20507949.521 7 107770058.117 7     93251.569          46.000  
  24811476.885 6 130385234.057 6     95029.280          37.000  
  24227046.165 6 127313994.894 6     96189.411          41.000  
 14 01 11 12 19 16.9999999  0 10G01G04G10G11G13G17G20G23G31G32       0.001171152
  22542462.297 7 118461468.919 7     96220.746          44.000  
  21919481.714 7 115187724.855 7     90645.564          45.000  
  23373893.769 7 122830755.787 7     90485.316          43.000  
  25004115.650 6 131397478.606 6     97076.701          37.000  
  21151050.546 7 111149603.812 7     90935.505          46.000  
  21628293.263 7 113657442.224 7     94450.908          46.000  
  20947746.968 7 110081230.299 7     95019.889          45.000  
  20507930.312 7 107769954.173 7     93252.113          46.000  
  24811794.063 6 130386907.839 6     95029.619          37.000  
  24227586.246 6 127316829.042 6     96189.308          41.000  
 14 01 11 12 19 17.9999999  0 10G01G04G10G11G13G17G20G23G31G32       0.001230414
  22543007.497 7 118464332.965 7     96221.403          44.000  
  21918967.056 7 115185013.309 7     90645.708          45.000  
  23373344.394 7 122827883.805 7     90485.830          43.000  
  25004823.061 6 131401198.071 6     97076.373          37.000  
  21150589.887 7 111147182.035 7     90936.162          46.000  
  21628500.466 7 113658536.079 7     94451.359          46.000  
  20948063.507 7 110082892.723 7     95019.786          45.000  
  20507909.756 7 107769849.153 7     93252.637          46.000  
  24812114.078 6 130388580.527 6     95030.029          38.000  
  24228126.213 6 127319661.585 6     96189.904          41.000  
 14 01 11 12 19 18.9999999  0 10G01G04G10G11G13G17G20G23G31G32       0.001289675
  22543553.638 7 118467198.952 7     96221.814          44.000  
  21918449.917 7 115182303.728 7     90646.396          45.000  
  23372799.168 7 122825013.621 7     90486.055          43.000  
  25005527.186 6 131404919.276 6     97076.948          37.000  
  21150129.063 7 111144762.386 7     90936.849          46.000  
  21628709.433 7 113659632.210 7     94451.934          46.000  
  20948380.030 7 110084557.060 7     95020.227          45.000  
  20507889.240 7 107769746.340 7     93253.181          46.000  
  24812432.797 6 130390255.408 6     95030.973          38.000  
  24228664.391 6 127322495.732 6     96189.740          41.000  
 14 01 11 12 19 19.9999999  0 10G01G04G10G11G13G17G20G23G31G32       0.001348939
  22544096.864 7 118470060.625 7     96222.286          44.000  
  21917934.050 7 115179589.825 7     90646.724          45.000  
  23372251.196 7 122822139.006 7     90486.528          43.000  
  25006231.587 6 131408635.926 6     97077.081          37.000  
  21149668.028 7 111142338.631 7     90937.311          46.000  
  21628917.835 7 113660724.368 7     94452.909          46.000  
  20948695.538 7 110086217.068 7     95020.648          45.000  
  20507868.151 7 107769639.514 7     93253.991          46.000  
  24812750.540 6 130391926.160 6     95030.902          38.000  
  24229204.930 6 127325325.282 6     96189.935          41.000  
 14 01 11 12 19 20.9999999  0 10G01G04G10G11G13G17G20G23G31G32       0.001408199
  22544642.693 7 118472928.976 7     96222.337          44.000  
  21917418.122 7 115176882.604 7     90646.929          45.000  
  23371707.507 7 122819270.902 7     90486.333          43.000  
  25006946.342 6 131412358.987 6     97076.907          37.000  
  21149207.921 7 111139921.753 7     90937.496          46.000  
  21629126.613 7 113661823.506 7     94453.279          46.000  
  20949013.638 7 110087883.697 7     95020.463          45.000  
  20507849.329 7 107769539.603 7     93254.135          46.000  
  24813069.042 6 130393603.898 6     95032.072          38.000  
  24229742.122 6 127328161.245 6     96189.924          41.000  
 14 01 11 12 19 21.9999999  0 10G01G04G10G11G13G17G20G23G31G32       0.001467462
  22545187.853 7 118475792.813 7     96222.635          44.000  
  21916901.522 7 115174170.856 7     90646.960          45.000  
  23371159.695 7 122816398.131 7     90486.394          43.000  
  25007652.569 6 131416077.236 6     97076.599          37.000  
  21148747.752 7 111137500.548 7     90937.906          46.000  
  21629334.783 7 113662918.444 7     94453.679          46.000  
  20949329.348 7 110089545.761 7     95020.576          45.000  
  20507830.270 7 107769435.450 7     93254.679          46.000  
  24813387.098 6 130395277.293 6     95032.297          38.000  
  24230283.336 6 127330992.347 6     96189.411          41.000  
 14 01 11 12 19 22.9999999  0 10G01G04G10G11G13G17G20G23G31G32       0.001526725
  22545733.444 7 118478656.913 7     96223.271          44.000  
  21916386.113 7 115171459.364 7     90647.720          45.000  
  23370611.907 7 122813525.487 7     90486.404          43.000  
  25008356.329 6 131419795.521 6     97076.886          37.000  
  21148286.332 7 111135079.772 7     90938.409          46.000  
  21629543.064 7 113664013.968 7     94454.654          46.000  
  20949645.481 7 110091208.053 7     95021.274          45.000  
  20507810.358 7 107769331.810 7     93255.439          46.000  
  24813702.974 6 130396951.229 6     95033.324          38.000  
  24230821.882 6 127333823.422 6     96189.709          41.000  
 14 01 11 12 19 23.9999999  0 10G01G04G10G11G13G17G20G23G31G32       0.001585987
  22546278.277 7 118481523.025 7     96223.528          44.000  
  21915869.569 7 115168749.906 7     90648.038          45.000  
  23370068.286 7 122810654.737 7     90487.010          43.000  
  25009064.614 6 131423515.584 6     97077.286          37.000  
  21147825.912 7 111132661.243 7     90939.230          46.000  
  21629751.790 7 113665111.835 7     94455.403          46.000  
  20949961.803 7 110092872.333 7     95021.664          45.000  
  20507791.267 7 107769230.486 7     93256.301          46.000  
  24814024.220 6 130398627.389 6     95033.693          38.000  
  24231359.808 6 127336656.240 6     96190.089          41.000  
 14 01 11 12 19 24.9999999  0 10G01G04G10G11G13G17G20G23G31G32       0.001645248
  22546823.847 7 118484391.017 7     96223.979          44.000  
  21915354.332 7 115166042.318 7     90648.346          45.000  
  23369520.042 7 122807785.698 7     90486.682          43.000  
  25009771.867 6 131427237.224 6     97077.163          37.000  
  21147365.688 7 111130244.753 7     90939.282          46.000  
  21629961.315 7 113666211.896 7     94456.081          46.000  
  20950278.470 7 110094538.432 7     95021.849          45.000  
  20507771.251 7 107769131.301 7     93257.019          46.000  
  24814342.253 6 130400305.666 6     95033.960          38.000  
  24231900.124 6 127339490.621 6     96190.119          41.000  
 14 01 11 12 19 25.9999999  0 10G01G04G10G11G13G17G20G23G31G32       0.001704512
  22547369.177 7 118487254.749 7     96224.308          44.000  
  21914838.090 7 115163330.444 7     90648.818          45.000  
  23368974.580 7 122804912.273 7     90487.472          43.000  
  25010479.787 6 131430954.369 6     97076.937          37.000  
  21146905.077 7 111127824.225 7     90940.298          46.000  
  21630170.274 7 113667307.984 7     94456.645          46.000  
  20950595.839 7 110096200.218 7     95022.075          45.000  
  20507752.943 7 107769028.093 7     93257.450          46.000  
  24814663.139 6 130401979.934 6     95034.874          38.000  
  24232437.094 6 127342320.417 6     96189.986          41.000  
 14 01 11 12 19 26.9999999  0 10G01G04G10G11G13G17G20G23G31G32       0.001763772
  22547914.233 7 118490125.036 7     96224.349          44.000  
  21914323.853 7 115160625.114 7     90648.962          45.000  
  23368425.768 7 122802045.249 7     90487.092          43.000  
  25011191.378 6 131434677.806 6     97077.728          37.000  
  21146446.318 7 111125410.429 7     90940.637          46.000  
  21630379.971 7 113668410.944 7     94457.076          46.000  
  20950914.449 7 110097868.523 7     95022.280          45.000  
  20507733.464 7 107768931.732 7     93257.810          46.000  
  24814984.555 6 130403660.985 6     95035.469          38.000  
  24232977.354 6 127345156.506 6     96189.986          41.000  
 14 01 11 12 19 27.9999999  0 10G01G04G10G11G13G17G20G23G31G32       0.001823036
  22548460.212 7 118492989.172 7     96224.503          44.000  
  21913808.446 7 115157913.630 7     90649.321          45.000  
  23367880.512 7 122799171.910 7     90487.174          43.000  
  25011900.222 6 131438394.803 6     97077.502          37.000  
  21145986.805 7 111122990.672 7     90941.078          46.000  
  21630589.322 7 113669508.091 7     94457.949          46.000  
  20951229.595 7 110099530.627 7     95022.496          45.000  
  20507714.957 7 107768829.474 7     93258.384          46.000  
  24815305.036 6 130405336.128 6     95036.054          39.000  
  24233515.815 6 127347986.138 6     96190.109          41.000  
 14 01 11 12 19 28.9999999  0 10G01G04G10G11G13G17G20G23G31G32       0.001882298
  22549006.289 7 118495856.827 7     96224.359          44.000  
  21913292.187 7 115155205.670 7     90649.157          45.000  
  23367335.147 7 122796301.996 7     90487.667          43.000  
  25012602.837 6 131442115.068 6     97076.044          37.000  
  21145526.666 7 111120574.629 7     90941.252          46.000  
  21630798.069 7 113670609.067 7     94458.154          46.000  
  20951547.117 7 110101196.218 7     95022.793          45.000  
  20507696.408 7 107768731.000 7     93258.692          46.000  
  24815624.519 6 130407015.022 6     95035.633          39.000  
  24234054.709 6 127350819.043 6     96190.027          40.000  
 14 01 11 12 19 29.9999999  0 10G01G04G10G11G13G17G20G23G31G32       0.001941561
  22549551.561 7 118498723.249 7     96225.191          44.000  
  21912776.832 7 115152496.464 7     90649.865          45.000  
  23366789.134 7 122793430.677 7     90487.790          43.000  
  25013311.842 6 131445833.919 6     97077.492          37.000  
  21145065.947 7 111118157.530 7     90941.930          46.000  
  21631008.544 7 113671709.122 7     94459.211          46.000  
  20951863.631 7 110102860.510 7     95023.142          45.000  
  20507676.725 7 107768631.562 7     93259.585          46.000  
  24815945.524 6 130408692.912 6     95036.937          39.000  
  24234593.483 6 127353650.318 6     96189.565          40.000  
 14 01 11 12 19 30.9999999  0 10G01G04G10G11G13G17G20G23G31G32       0.002000824
  22550098.802 7 118501590.020 7     96225.827          44.000  
  21912263.254 7 115149787.595 7     90650.337          45.000  
  23366244.108 7 122790559.546 7     90487.934          43.000  
  25014023.326 6 131449552.794 6     97077.574          37.000  
  21144605.331 7 111115740.981 7     90943.038          46.000  
  21631217.244 7 113672809.845 7     94459.960          46.000  
  20952180.204 7 110104525.111 7     95023.707          45.000  
  20507657.918 7 107768532.733 7     93260.304          46.000  
  24816263.213 6 130410371.381 6     95037.470          39.000  
  24235133.225 6 127356481.683 6     96190.160          40.000  
 14 01 11 12 19 31.9999999  0 10G01G04G10G11G13G17G20G23G31G32       0.002060086
  22550643.751 7 118504458.751 7     96226.073          44.000  
  21911747.957 7 115147080.688 7     90650.573          45.000  
  23365698.285 7 122787690.228 7     90487.574          43.000  
  25014729.805 6 131453273.361 6     97078.302          37.000  
  21144145.885 7 111113326.574 7     90943.244          46.000  
  21631427.326 7 113673912.834 7     94460.443          46.000  
  20952497.520 7 110106191.620 7     95023.686          45.000  
  20507639.343 7 107768436.121 7     93260.704          46.000  
  24816582.081 6 130412052.044 6     95038.096          39.000  
  24235674.237 6 127359314.719 6     96189.914          40.000  
 14 01 11 12 19 33.0000000  0 10G01G04G10G11G13G17G20G23G31G32       0.002119349
  22551188.825 7 118507326.131 7     96226.381          44.000  
  21911232.970 7 115144372.414 7     90650.706          45.000  
  23365151.428 7 122784819.476 7     90488.437          43.000  
  25015432.938 6 131456992.350 6     97077.081          37.000  
  21143686.411 7 111110911.022 7     90943.593          45.000  
  21631637.215 7 113675014.808 7     94461.100          46.000  
  20952814.956 7 110107856.758 7     95024.179          45.000  
  20507620.566 7 107768338.444 7     93261.515          45.000  
  24816901.502 6 130413731.613 6     95038.363          39.000  
  24236211.699 6 127362146.101 6     96190.325          40.000  
 14 01 11 12 19 34.0000000  0 10G01G04G10G11G13G17G20G23G31G32       0.002178611
  22551738.276 7 118510195.515 7     96226.443          44.000  
  21910717.037 7 115141666.168 7     90651.250          45.000  
  23364604.530 7 122781950.508 7     90488.067          43.000  
  25016141.354 6 131460713.103 6     97077.553          37.000  
  21143226.787 7 111108497.680 7     90944.106          45.000  
  21631847.544 7 113676119.094 7     94461.798          46.000  
  20953131.812 7 110109523.847 7     95024.384          45.000  
  20507602.601 7 107768243.038 7     93262.223          45.000  
  24817220.584 6 130415413.397 6     95038.815          40.000  
  24236748.343 6 127364979.183 6     96189.791          40.000  
 14 01 11 12 19 35.0000000  0 10G01G04G10G11G13G17G20G23G31G32       0.002237873
  22552280.925 7 118513065.155 7     96226.843          44.000  
  21910202.099 7 115138960.149 7     90651.343          45.000  
  23364059.565 7 122779081.698 7     90488.580          43.000  
  25016853.753 6 131464433.784 6     97077.461          37.000  
  21142768.576 7 111106084.763 7     90944.629          45.000  
  21632057.980 7 113677223.945 7     94462.177          46.000  
  20953449.657 7 110111191.135 7     95024.538          45.000  
  20507585.109 7 107768148.119 7     93262.408          45.000  
  24817542.620 6 130417095.709 6     95039.790          40.000  
  24237287.076 6 127367812.243 6     96190.212          40.000  
 14 01 11 12 19 36.0000000  0 10G01G04G10G11G13G17G20G23G31G32       0.002297136
  22552827.304 7 118515933.397 7     96227.110          44.000  
  21909685.945 7 115136252.744 7     90651.640          45.000  
  23363513.543 7 122776211.334 7     90488.981          43.000  
  25017560.519 6 131468152.864 6     97077.235          37.000  
  21142309.185 7 111103670.651 7     90945.183          45.000  
  21632268.976 7 113678327.735 7     94462.865          46.000  
  20953766.280 7 110112856.996 7     95024.846          45.000  
  20507566.645 7 107768052.089 7     93262.993          45.000  
  24817862.527 6 130418776.831 6     95040.129          40.000  
  24237828.719 6 127370643.600 6     96190.119          40.000  
 14 01 11 12 19 37.0000000  0 10G01G04G10G11G13G17G20G23G31G32       0.002356398
  22553373.240 7 118518803.311 7     96227.500          44.000  
  21909171.629 7 115133546.991 7     90651.866          45.000  
  23362966.666 7 122773342.471 7     90488.170          43.000  
  25018266.034 6 131471873.371 6     97077.307          37.000  
  21141851.481 7 111101258.400 7     90945.481          45.000  
  21632478.255 7 113679433.505 7     94463.419          46.000  
  20954082.639 7 110114524.477 7     95024.784          45.000  
  20507547.788 7 107767957.993 7     93263.578          45.000  
  24818183.177 6 130420459.858 6     95040.396          40.000  
  24238367.768 6 127373476.322 6     96189.575          40.000  
 14 01 11 12 19 38.0000000  0 10G01G04G10G11G13G17G20G23G31G32       0.002415663
  22553920.270 7 118521668.971 7     96227.695          44.000  
  21908656.504 7 115130836.995 7     90652.492          45.000  
  23362419.907 7 122770469.235 7     90488.632          43.000  
  25018972.017 6 131475589.336 6     97077.584          37.000  
  21141391.670 7 111098842.076 7     90945.994          46.000  
  21632689.448 7 113680535.330 7     94464.240          46.000  
  20954401.221 7 110116187.637 7     95024.795          45.000  
  20507528.550 7 107767859.899 7     93264.040          45.000  
  24818504.015 6 130422138.875 6     95041.299          40.000  
  24238905.953 6 127376304.504 6     96190.314          40.000  
 14 01 11 12 19 39.0000000  0 10G01G04G10G11G13G17G20G23G31G32       0.002474923
  22554464.898 7 118524543.010 7     96228.321          44.000  
  21908141.070 7 115128135.371 7     90652.821          45.000  
  23361875.861 7 122767604.255 7     90489.473          43.000  
  25019683.920 6 131479313.413 6     97077.102          37.000  
  21140931.970 7 111096434.338 7     90946.559          46.000  
  21632898.870 7 113681645.851 7     94464.774          46.000  
  20954718.351 7 110117859.165 7     95025.708          45.000  
  20507512.485 7 107767770.479 7     93265.240          45.000  
  24818822.681 6 130423826.474 6     95041.904          40.000  
  24239446.626 6 127379140.759 6     96190.222          40.000  
 14 01 11 12 19 40.0000000  0 10G01G04G10G11G13G17G20G23G31G32       0.002534187
  22555010.863 7 118527411.075 7     96228.362          44.000  
  21907626.976 7 115125427.785 7     90653.170          45.000  
  23361330.653 7 122764733.170 7     90489.720          43.000  
  25020389.132 6 131483031.327 6     97078.220          37.000  
  21140472.883 7 111094020.817 7     90947.051          46.000  
  21633109.692 7 113682750.727 7     94465.380          46.000  
  20955036.049 7 110119524.677 7     95026.170          45.000  
  20507494.950 7 107767675.329 7     93265.528          45.000  
  24819142.926 6 130425508.372 6     95042.438          40.000  
  24239984.588 6 127381970.770 6     96190.417          40.000  
 14 01 11 12 19 41.0000000  0 10G01G04G10G11G13G17G20G23G31G32       0.002593448
  22555558.736 7 118530284.170 7     96228.475          44.000  
  21907112.311 7 115122725.203 7     90653.170          45.000  
  23360784.085 7 122761866.935 7     90489.689          43.000  
  25021100.190 6 131486753.961 6     97077.810          37.000  
  21140014.600 7 111091612.524 7     90947.729          46.000  
  21633321.339 7 113683860.938 7     94465.842          46.000  
  20955352.979 7 110121195.156 7     95026.149          45.000  
  20507477.660 7 107767585.472 7     93265.969          45.000  
  24819464.741 6 130427195.526 6     95042.982          40.000  
  24240523.826 6 127384805.483 6     96190.561          40.000  
 14 01 11 12 19 42.0000000  0 10G01G04G10G11G13G17G20G23G31G32       0.002652711
  22556105.103 7 118533154.349 7     96229.245          44.000  
  21906598.234 7 115120019.709 7     90653.960          45.000  
  23360238.838 7 122758997.639 7     90489.956          43.000  
  25021804.737 6 131490473.380 6     97077.030          37.000  
  21139555.796 7 111089201.491 7     90947.883          46.000  
  21633531.921 7 113684968.553 7     94466.652          46.000  
  20955670.677 7 110122862.672 7     95026.498          45.000  
  20507458.915 7 107767492.967 7     93266.718          45.000  
  24819786.803 6 130428879.973 6     95043.403          40.000  
  24241060.357 6 127387636.971 6     96190.314          40.000  
 14 01 11 12 19 43.0000000  0 10G01G04G10G11G13G17G20G23G31G32       0.002711971
  22556651.458 7 118536029.463 7     96229.450          44.000  
  21906084.526 7 115117319.157 7     90653.939          45.000  
  23359693.171 7 122756133.144 7     90489.894          43.000  
  25022516.472 6 131494197.575 6     97078.538          37.000  
  21139097.781 7 111086795.608 7     90948.581          46.000  
  21633743.120 7 113686081.412 7     94467.022          46.000  
  20955988.739 7 110124535.096 7     95026.724          45.000  
  20507442.872 7 107767405.657 7     93267.242          45.000  
  24820106.619 6 130430569.614 6     95044.286          40.000  
  24241599.486 6 127390473.113 6     96190.704          40.000  
 14 01 11 12 19 44.0000000  0 10G01G04G10G11G13G17G20G23G31G32       0.002771233
  22557197.846 7 118538901.751 7     96229.440          44.000  
  21905569.138 7 115114615.778 7     90654.083          45.000  
  23359145.991 7 122753265.691 7     90490.079          43.000  
  25023224.181 6 131497918.609 6     97077.912          37.000  
  21138639.456 7 111084387.092 7     90948.899          46.000  
  21633954.416 7 113687191.784 7     94467.781          46.000  
  20956305.684 7 110126204.654 7     95026.960          45.000  
  20507426.723 7 107767315.793 7     93267.529          45.000  
  24820427.649 6 130432256.638 6     95044.234          40.000  
  24242138.210 6 127393306.129 6     96190.027          40.000  
 14 01 11 12 19 45.0000000  0 10G01G04G10G11G13G17G20G23G31G32       0.002830493
  22557745.444 7 118541777.399 7     96229.563          44.000  
  21905056.861 7 115111915.739 7     90654.155          45.000  
  23358598.849 7 122750401.438 7     90489.863          43.000  
  25023932.862 6 131501642.754 6     97077.389          37.000  
  21138181.996 7 111081982.123 7     90949.453          46.000  
  21634165.650 7 113688305.821 7     94468.223          46.000  
  20956623.826 7 110127877.501 7     95026.611          45.000  
  20507409.362 7 107767229.564 7     93268.166          45.000  
  24820748.796 6 130433947.276 6     95044.532          40.000  
  24242676.567 6 127396142.214 6     96189.801          40.000  
 14 01 11 12 19 46.0000000  0 10G01G04G10G11G13G17G20G23G31G32       0.002889758
  22558291.398 7 118544645.404 7     96229.758          44.000  
  21904539.706 7 115109208.073 7     90654.545          45.000  
  23358055.364 7 122747529.409 7     90490.212          43.000  
  25024637.960 6 131505359.066 6     97078.272          37.000  
  21137723.690 7 111079569.711 7     90949.566          46.000  
  21634376.820 7 113689412.528 7     94468.798          46.000  
  20956939.936 7 110129542.672 7     95026.837          45.000  
  20507392.688 7 107767135.939 7     93268.350          45.000  
  24821070.247 6 130435630.515 6     95045.055          41.000  
  24243217.601 6 127398970.366 6     96189.965          40.000  
 14 01 11 12 19 47.0000000  0 10G01G04G10G11G13G17G20G23G31G32       0.002949018
  22558836.616 7 118547521.544 7     96229.932          44.000  
  21904026.572 7 115106508.534 7     90654.904          45.000  
  23357508.076 7 122744665.387 7     90490.633          43.000  
  25025344.547 6 131509083.205 6     97077.379          37.000  
  21137265.640 7 111077165.641 7     90950.274          46.000  
  21634588.646 7 113690527.681 7     94469.208          46.000  
  20957258.734 7 110131215.968 7     95027.576          45.000  
  20507376.281 7 107767050.720 7     93269.192          46.000  
  24821391.195 6 130437322.105 6     95045.794          41.000  
  24243757.269 6 127401806.338 6     96189.955          40.000  
 14 01 11 12 19 48.0000000  0 10G01G04G10G11G13G17G20G23G31G32       0.003008281
  22559384.033 7 118550393.242 7     96230.538          44.000  
  21903511.259 7 115103804.548 7     90654.945          45.000  
  23356963.712 7 122741796.736 7     90490.571          43.000  
  25026054.241 6 131512802.676 6     97078.559          37.000  
  21136807.351 7 111074757.315 7     90951.044          46.000  
  21634800.640 7 113691638.721 7     94470.234          46.000  
  20957576.099 7 110132884.732 7     95027.679          45.000  
  20507360.032 7 107766961.331 7     93269.859          46.000  
  24821711.913 6 130439009.494 6     95046.482          41.000  
  24244295.080 6 127404637.555 6     96190.212          40.000  
 14 01 11 12 19 49.0000000  0 10G01G04G10G11G13G17G20G23G31G32       0.003067542
  22559930.988 7 118553268.506 7     96230.877          44.000  
  21902998.338 7 115101104.130 7     90655.346          45.000  
  23356418.675 7 122738931.549 7     90490.520          43.000  
  25026764.361 6 131516525.383 6     97077.389          37.000  
  21136349.773 7 111072352.727 7     90951.188          46.000  
  21635012.421 7 113692753.633 7     94470.542          46.000  
  20957894.138 7 110134557.035 7     95028.079          45.000  
  20507343.366 7 107766875.752 7     93270.075          46.000  
  24822032.403 6 130440700.678 6     95047.190          41.000  
  24244832.754 6 127407472.050 6     96190.130          40.000  
 14 01 11 12 19 50.0000000  0 10G01G04G10G11G13G17G20G23G31G32       0.003126806
  22560477.662 7 118556139.300 7     96231.380          44.000  
  21902484.375 7 115098399.236 7     90656.044          45.000  
  23355875.803 7 122736061.737 7     90490.664          43.000  
  25027467.890 6 131520243.452 6     97079.195          37.000  
  21135890.815 7 111069943.890 7     90951.947          46.000  
  21635223.792 7 113693864.397 7     94471.456          46.000  
  20958211.504 7 110136224.808 7     95028.305          45.000  
  20507327.616 7 107766785.984 7     93270.998          46.000  
  24822354.558 6 130442387.615 6     95047.724          40.000  
  24245372.944 6 127410301.770 6     96190.037          40.000  
 14 01 11 12 19 51.0000000  0 10G01G04G10G11G13G17G20G23G31G32       0.003186069
  22561024.321 7 118559012.011 7     96231.195          44.000  
  21901970.778 7 115095696.265 7     90655.920          45.000  
  23355329.657 7 122733193.719 7     90490.818          43.000  
  25028178.006 6 131523963.135 6     97078.816          37.000  
  21135432.827 7 111067537.146 7     90952.245          46.000  
  21635435.210 7 113694977.408 7     94471.805          46.000  
  20958528.278 7 110137894.466 7     95028.233          45.000  
  20507309.998 7 107766698.400 7     93271.101          46.000  
  24822676.932 6 130444076.700 6     95047.724          40.000  
  24245913.636 6 127413133.127 6     96189.319          40.000  
 14 01 11 12 19 52.0000000  0 10G01G04G10G11G13G17G20G23G31G32       0.003245332
  22561570.086 7 118561885.026 7     96231.698          44.000  
  21901457.043 7 115092993.573 7     90656.362          45.000  
  23354781.058 7 122730325.811 7     90490.746          43.000  
  25028886.226 6 131527682.854 6     97078.569          37.000  
  21134975.506 7 111065130.904 7     90953.179          46.000  
  21635647.690 7 113696090.998 7     94472.513          46.000  
  20958847.387 7 110139564.392 7     95028.603          45.000  
  20507293.436 7 107766611.365 7     93271.912          46.000  
  24822998.455 6 130445766.315 6     95048.689          41.000  
  24246453.948 6 127415964.484 6     96189.668          40.000  
 14 01 11 12 19 53.0000000  0 10G01G04G10G11G13G17G20G23G31G32       0.003304593
  22562118.560 7 118564761.276 7     96231.821          44.000  
  21900941.266 7 115090294.142 7     90656.290          45.000  
  23354236.485 7 122727461.061 7     90490.941          43.000  
  25029598.239 6 131531405.513 6     97077.368          37.000  
  21134517.316 7 111062728.099 7     90953.271          46.000  
  21635861.042 7 113697208.172 7     94472.893          46.000  
  20959164.249 7 110141237.516 7     95028.828          45.000  
  20507277.925 7 107766527.859 7     93272.374          46.000  
  24823320.260 6 130447459.414 6     95049.038          41.000  
  24246992.540 6 127418798.802 6     96189.904          40.000  
 14 01 11 12 19 54.0000000  0 10G01G04G10G11G13G17G20G23G31G32       0.003363855
  22562664.154 7 118567636.394 7     96232.447          44.000  
  21900427.176 7 115087593.581 7     90656.906          45.000  
  23353691.667 7 122724595.027 7     90491.516          43.000  
  25030304.099 6 131535126.831 6     97077.800          37.000  
  21134061.041 7 111060324.359 7     90953.682          46.000  
  21636072.147 7 113698324.533 7     94473.734          46.000  
  20959481.838 7 110142909.458 7     95029.167          45.000  
  20507260.725 7 107766443.468 7     93272.969          46.000  
  24823644.366 6 130449151.604 6     95049.027          41.000  
  24247530.664 6 127421631.664 6     96189.945          40.000  
 14 01 11 12 19 55.0000000  0 10G01G04G10G11G13G17G20G23G31G32       0.003423117
  22563211.901 7 118570511.822 7     96232.509          44.000  
  21899914.476 7 115084893.328 7     90657.368          45.000  
  23353145.735 7 122721729.133 7     90491.875          43.000  
  25031008.824 6 131538848.183 6     97078.107          37.000  
  21133603.719 7 111057921.116 7     90954.103          46.000  
  21636284.130 7 113699441.509 7     94474.432          46.000  
  20959801.191 7 110144581.666 7     95029.454          45.000  
  20507245.157 7 107766359.660 7     93273.544          46.000  
  24823966.109 6 130450844.370 6     95049.941          41.000  
  24248072.597 6 127424464.541 6     96189.955          40.000  
 14 01 11 12 19 56.0000000  0 10G01G04G10G11G13G17G20G23G31G32       0.003482378
  22563759.046 7 118573389.088 7     96232.714          44.000  
  21899400.030 7 115082194.895 7     90656.967          45.000  
  23352598.412 7 122718864.930 7     90491.352          42.000  
  25031716.526 6 131542571.184 6     97078.077          37.000  
  21133146.215 7 111055519.917 7     90954.677          46.000  
  21636497.857 7 113700560.656 7     94474.997          46.000  
  20960119.744 7 110146255.675 7     95029.783          45.000  
  20507229.993 7 107766277.970 7     93274.026          46.000  
  24824288.429 6 130452539.174 6     95049.879          41.000  
  24248609.875 6 127427298.958 6     96189.935          40.000  
 14 01 11 12 19 57.0000000  0 10G01G04G10G11G13G17G20G23G31G32       0.003541641
  22564306.404 7 118576263.475 7     96233.463          44.000  
  21898885.606 7 115079493.575 7     90657.614          45.000  
  23352054.893 7 122715997.721 7     90491.803          42.000  
  25032427.992 6 131546290.961 6     97077.769          37.000  
  21132688.007 7 111053116.019 7     90955.283          46.000  
  21636710.329 7 113701677.203 7     94475.325          46.000  
  20960437.737 7 110147926.738 7     95029.978          45.000  
  20507214.704 7 107766193.630 7     93274.796          46.000  
  24824609.875 6 130454231.385 6     95051.388          41.000  
  24249147.498 6 127430130.184 6     96189.719          40.000  
 14 01 11 12 19 58.0000000  0 10G01G04G10G11G13G17G20G23G31G32       0.003600903
  22564854.490 7 118579139.687 7     96233.740          43.000  
  21898371.152 7 115076794.101 7     90658.137          45.000  
  23351508.462 7 122713132.204 7     90491.680          42.000  
  25033139.764 6 131550012.353 6     97078.559          37.000  
  21132232.090 7 111050714.158 7     90955.642          46.000  
  21636922.836 7 113702795.932 7     94476.003          46.000  
  20960756.262 7 110149599.600 7     95030.019          45.000  
  20507199.059 7 107766111.412 7     93275.104          46.000  
  24824933.044 6 130455925.651 6     95052.435          41.000  
  24249685.227 6 127432962.969 6     96189.894          40.000  
 14 01 11 12 19 59.0000000  0 10G01G04G10G11G13G17G20G23G31G32       0.003660169
  22565402.008 7 118582009.913 7     96233.730          43.000  
  21897857.460 7 115074088.636 7     90658.312          45.000  
  23350964.859 7 122710260.552 7     90491.742          42.000  
  25033842.161 6 131553727.471 6     97077.964          37.000  
  21131774.119 7 111048306.506 7     90956.135          46.000  
  21637135.215 7 113703908.996 7     94476.916          46.000  
  20961075.356 7 110151266.452 7     95030.686          45.000  
  20507183.088 7 107766023.485 7     93276.079          46.000  
  24825256.441 6 130457614.115 6     95051.911          41.000  
  24250222.333 6 127435789.480 6     96189.924          40.000  
 14 01 11 12 19 60.0000000  0 10G01G04G10G11G13G17G20G23G31G32       0.003719429
  22565948.362 7 118584890.025 7     96233.956          43.000  
  21897344.698 7 115071393.051 7     90658.538          45.000  
  23350418.163 7 122707398.645 7     90491.875          42.000  
  25034550.396 6 131557452.270 6     97079.103          37.000  
  21131318.829 7 111045908.940 7     90956.802          46.000  
  21637347.819 7 113705032.232 7     94477.358          46.000  
  20961392.698 7 110152943.093 7     95030.183          45.000  
  20507166.375 7 107765945.656 7     93275.956          46.000  
  24825578.342 6 130459312.715 6     95052.527          41.000  
  24250762.590 6 127438625.548 6     96189.924          40.000  
 14 01 11 12 20  1.0000000  0 10G01G04G10G11G13G17G20G23G31G32       0.003778691
  22566496.241 7 118587767.144 7     96234.336          43.000  
  21896830.220 7 115068694.453 7     90659.061          45.000  
  23349872.199 7 122704533.587 7     90492.439          42.000  
  25035261.234 6 131561173.750 6     97078.087          37.000  
  21130863.573 7 111043508.555 7     90957.315          46.000  
  21637561.243 7 113706152.784 7     94478.127          46.000  
  20961711.180 7 110154616.729 7     95030.973          45.000  
  20507151.433 7 107765865.135 7     93277.218          46.000  
  24825901.051 6 130461008.562 6     95053.205          41.000  
  24251301.647 6 127441458.313 6     96189.637          40.000  
 14 01 11 12 20  2.0000000  0 10G01G04G10G11G13G17G20G23G31G32       0.003837954
  22567042.912 7 118590642.919 7     96234.674          43.000  
  21896317.777 7 115065994.546 7     90659.133          45.000  
  23349329.192 7 122701667.062 7     90492.203          42.000  
  25035967.390 6 131564893.626 6     97078.231          37.000  
  21130405.057 7 111041107.033 7     90957.828          46.000  
  21637776.186 7 113707272.320 7     94478.425          46.000  
  20962029.397 7 110156288.972 7     95031.302          45.000  
  20507134.570 7 107765783.523 7     93277.321          46.000  
  24826224.500 6 130462703.299 6     95053.482          41.000  
  24251842.108 6 127444289.456 6     96189.832          40.000  
 14 01 11 12 20  3.0000000  0 10G01G04G10G11G13G17G20G23G31G32       0.003897216
  22567591.261 7 118593520.514 7     96234.654          43.000  
  21895804.156 7 115063296.447 7     90659.307          45.000  
  23348781.936 7 122698802.215 7     90492.491          42.000  
  25036670.244 6 131568615.146 6     97079.719          37.000  
  21129948.064 7 111038707.523 7     90958.290          46.000  
  21637990.775 7 113708393.990 7     94479.000          46.000  
  20962348.715 7 110157962.997 7     95031.158          45.000  
  20507121.343 7 107765704.010 7     93277.988          46.000  
  24826546.440 6 130464400.105 6     95054.200          41.000  
  24252380.196 6 127447122.129 6     96189.842          40.000  
 14 01 11 12 20  4.0000000  0 10G01G04G10G11G13G17G20G23G31G32       0.003956477
  22568138.435 7 118596399.932 7     96235.044          43.000  
  21895290.692 7 115060600.179 7     90659.933          45.000  
  23348238.041 7 122695939.025 7     90492.337          42.000  
  25037380.618 6 131572338.189 6     97078.354          37.000  
  21129490.884 7 111036310.025 7     90958.413          46.000  
  21638204.057 7 113709517.796 7     94480.077          46.000  
  20962666.655 7 110159638.783 7     95031.179          45.000  
  20507104.514 7 107765626.574 7     93278.563          46.000  
  24826869.911 6 130466098.957 6     95055.134          41.000  
  24252920.665 6 127449956.313 6     96189.955          40.000  
 14 01 11 12 20  5.0000000  0 10G01G04G10G11G13G17G20G23G31G32       0.004015739
  22568684.034 7 118599278.075 7     96235.228          43.000  
  21894776.987 7 115057902.641 7     90659.975          45.000  
  23347690.839 7 122693074.461 7     90492.511          42.000  
  25038092.218 6 131576059.671 6     97077.368          37.000  
  21129034.074 7 111033911.471 7     90958.968          46.000  
  21638416.968 7 113710640.652 7     94480.519          46.000  
  20962984.729 7 110161313.274 7     95031.764          45.000  
  20507090.540 7 107765548.142 7     93278.830          46.000  
  24827193.754 6 130467796.764 6     95055.032          41.000  
  24253459.129 6 127452788.956 6     96189.688          40.000  
 14 01 11 12 20  6.0000000  0 10G01G04G10G11G13G17G20G23G31G32       0.004075000
  22569233.595 7 118602158.039 7     96235.690          43.000  
  21894264.199 7 115055206.919 7     90660.241          45.000  
  23347149.090 7 122690211.551 7     90493.394          42.000  
  25038799.934 6 131579782.745 6     97078.744          37.000  
  21128578.411 7 111031514.943 7     90959.768          46.000  
  21638629.907 7 113711765.650 7     94481.124          46.000  
  20963303.905 7 110162989.554 7     95032.102          45.000  
  20507075.632 7 107765471.797 7     93279.671          46.000  
  24827516.662 6 130469496.653 6     95056.140          41.000  
  24253999.589 6 127455623.097 6     96189.688          40.000  
 14 01 11 12 20  7.0000000  0 10G01G04G10G11G13G17G20G23G31G32       0.004134263
  22569780.360 7 118605035.309 7     96236.019          43.000  
  21893751.085 7 115052508.487 7     90660.436          45.000  
  23346601.660 7 122687345.785 7     90493.117          42.000  
  25039506.329 6 131583502.874 6     97078.446          37.000  
  21128121.507 7 111029115.898 7     90959.984          46.000  
  21638844.674 7 113712888.260 7     94481.535          46.000  
  20963622.934 7 110164663.065 7     95032.102          45.000  
  20507061.593 7 107765393.026 7     93280.072          46.000  
  24827841.565 6 130471194.034 6     95056.089          41.000  
  24254538.537 6 127458454.288 6     96190.017          40.000  
 14 01 11 12 20  8.0000000  0 10G01G04G10G11G13G17G20G23G31G32       0.004193525
  22570329.364 7 118607914.342 7     96236.265          43.000  
  21893237.360 7 115049811.843 7     90661.052          45.000  
  23346059.116 7 122684481.699 7     90493.486          42.000  
  25040215.096 6 131587224.471 6     97078.138          37.000  
  21127666.879 7 111026718.810 7     90960.651          46.000  
  21639057.743 7 113714012.944 7     94482.079          46.000  
  20963940.770 7 110166338.303 7     95032.441          45.000  
  20507046.606 7 107765316.269 7     93280.790          46.000  
  24828163.426 6 130472893.425 6     95056.725          41.000  
  24255076.424 6 127461286.900 6     96189.770          40.000  
 14 01 11 12 20  9.0000000  0 10G01G04G10G11G13G17G20G23G31G32       0.004252787
  22570879.573 7 118610793.712 7     96236.542          43.000  
  21892723.888 7 115047115.529 7     90661.381          45.000  
  23345511.655 7 122681617.774 7     90493.640          42.000  
  25040921.225 6 131590946.201 6     97078.744          37.000  
  21127211.592 7 111024322.261 7     90960.928          46.000  
  21639272.082 7 113715138.303 7     94482.777          46.000  
  20964259.425 7 110168013.844 7     95032.749          45.000  
  20507031.543 7 107765240.110 7     93281.355          46.000  
  24828485.590 6 130474593.404 6     95057.033          41.000  
  24255616.033 6 127464119.567 6     96190.232          40.000  
 14 01 11 12 20 10.0000000  0 10G01G04G10G11G13G17G20G23G31G32       0.004312048
  22571426.336 7 118613674.969 7     96236.973          43.000  
  21892210.582 7 115044421.090 7     90661.678          45.000  
  23344969.665 7 122678755.597 7     90493.835          42.000  
  25041632.221 6 131594669.513 6     97078.385          37.000  
  21126754.799 7 111021927.799 7     90961.523          46.000  
  21639485.699 7 113716265.869 7     94483.577          46.000  
  20964579.762 7 110169691.228 7     95033.067          45.000  
  20507017.843 7 107765166.118 7     93282.073          46.000  
  24828809.113 6 130476295.528 6     95058.347          41.000  
  24256154.414 6 127466953.779 6     96189.699          40.000  
 14 01 11 12 20 11.0000000  0 10G01G04G10G11G13G17G20G23G31G32       0.004371311
  22571972.948 7 118616553.433 7     96237.004          43.000  
  21891697.125 7 115041723.853 7     90661.617          45.000  
  23344422.740 7 122675890.485 7     90494.420          42.000  
  25042343.206 6 131598389.764 6     97078.426          37.000  
  21126299.603 7 111019530.727 7     90962.036          46.000  
  21639700.365 7 113717390.945 7     94483.793          46.000  
  20964898.034 7 110171365.759 7     95032.934          45.000  
  20507002.709 7 107765089.588 7     93282.309          46.000  
  24829134.231 6 130477995.039 6     95058.583          41.000  
  24256693.929 6 127469784.947 6     96189.657          40.000  
 14 01 11 12 20 12.0000000  0 10G01G04G10G11G13G17G20G23G31G32       0.004430571
  22572522.231 7 118619436.937 7     96237.764          43.000  
  21891185.960 7 115039031.663 7     90662.233          45.000  
  23343875.217 7 122673030.231 7     90494.154          42.000  
  25043050.913 6 131602114.787 6     97078.210          37.000  
  21125843.122 7 111017138.907 7     90962.858          46.000  
  21639915.099 7 113718521.382 7     94484.840          46.000  
  20965218.019 7 110173045.289 7     95033.519          45.000  
  20506988.966 7 107765018.364 7     93283.294          46.000  
  24829456.551 6 130479699.840 6     95059.353          41.000  
  24257234.915 6 127472620.848 6     96190.099          40.000  
 14 01 11 12 20 13.0000000  0 10G01G04G10G11G13G17G20G23G31G32       0.004489835
  22573070.163 7 118622314.338 7     96237.743          43.000  
  21890671.543 7 115036333.383 7     90662.150          45.000  
  23343332.984 7 122670163.778 7     90493.743          42.000  
  25043754.196 6 131605833.566 6     97078.939          37.000  
  21125387.613 7 111014741.187 7     90963.443          46.000  
  21640130.638 7 113719646.047 7     94485.055          46.000  
  20965537.600 7 110174718.701 7     95033.827          45.000  
  20506974.495 7 107764941.322 7     93283.418          46.000  
  24829781.566 6 130481398.808 6     95059.650          41.000  
  24257772.022 6 127475450.362 6     96189.668          40.000  
 14 01 11 12 20 14.0000000  0 10G01G04G10G11G13G17G20G23G31G32       0.004549096
  22573618.868 7 118625196.804 7     96238.082          43.000  
  21890160.179 7 115033640.148 7     90662.643          45.000  
  23342786.166 7 122667302.230 7     90494.225          42.000  
  25044467.506 6 131609557.033 6     97079.175          37.000  
  21124931.763 7 111012348.683 7     90963.443          46.000  
  21640345.101 7 113720776.057 7     94485.743          46.000  
  20965856.795 7 110176397.082 7     95034.155          45.000  
  20506961.413 7 107764869.576 7     93284.044          46.000  
  24830102.442 6 130483103.019 6     95060.071          41.000  
  24258311.361 6 127478284.610 6     96189.914          40.000  
 14 01 11 12 20 15.0000000  0 10G01G04G10G11G13G17G20G23G31G32       0.004608357
  22574167.254 7 118628079.593 7     96238.441          43.000  
  21889646.605 7 115030947.299 7     90663.167          45.000  
  23342242.054 7 122664440.900 7     90494.923          42.000  
  25045174.741 6 131613280.579 6     97078.795          37.000  
  21124476.214 7 111009956.755 7     90964.028          46.000  
  21640559.310 7 113721906.734 7     94486.800          46.000  
  20966176.054 7 110178075.799 7     95034.391          45.000  
  20506947.500 7 107764798.463 7     93284.978          46.000  
  24830427.809 6 130484807.832 6     95060.841          41.000  
  24258851.661 6 127481118.905 6     96189.647          40.000  
 14 01 11 12 20 16.0000000  0 10G01G04G10G11G13G17G20G23G31G32       0.004667619
  22574714.442 7 118630961.082 7     96238.379          43.000  
  21889134.492 7 115028253.126 7     90662.992          45.000  
  23341696.324 7 122661578.074 7     90494.420          42.000  
  25045880.736 6 131617002.609 6     97078.949          37.000  
  21124021.402 7 111007563.704 7     90964.294          46.000  
  21640774.474 7 113723036.426 7     94487.159          46.000  
  20966495.243 7 110179753.149 7     95034.863          45.000  
  20506933.955 7 107764726.280 7     93285.121          46.000  
  24830751.442 6 130486511.537 6     95060.420          40.000  
  24259389.376 6 127483951.618 6     96189.473          40.000  
 14 01 11 12 20 17.0000000  0 10G01G04G10G11G13G17G20G23G31G32       0.004726881
  22575263.380 7 118633842.772 7     96239.201          43.000  
  21888622.794 7 115025559.139 7     90663.741          45.000  
  23341154.035 7 122658715.322 7     90494.708          42.000  
  25046588.434 6 131620724.584 6     97079.452          37.000  
  21123566.664 7 111005171.038 7     90965.198          46.000  
  21640989.731 7 113724166.613 7     94487.785          46.000  
  20966814.457 7 110181430.628 7     95034.207          45.000  
  20506919.355 7 107764654.556 7     93285.799          46.000  
  24831075.737 6 130488215.717 6     95061.970          40.000  
  24259927.830 6 127486784.211 6     96189.894          40.000  
 14 01 11 12 20 18.0000000  0 10G01G04G10G11G13G17G20G23G31G32       0.004786144
  22575811.463 7 118636722.965 7     96239.211          43.000  
  21888109.673 7 115022863.669 7     90663.906          45.000  
  23340608.396 7 122655850.974 7     90494.810          42.000  
  25047300.929 6 131624444.773 6     97078.754          37.000  
  21123110.543 7 111002777.103 7     90965.352          46.000  
  21641205.149 7 113725295.640 7     94488.001          46.000  
  20967133.959 7 110183106.626 7     95035.161          45.000  
  20506905.671 7 107764581.648 7     93286.302          46.000  
  24831399.220 6 130489918.634 6     95061.908          40.000  
  24260467.468 6 127489615.029 6     96189.606          40.000  
 14 01 11 12 20 19.0000000  0 10G01G04G10G11G13G17G20G23G31G32       0.004845405
  22576359.848 7 118639606.750 7     96239.385          43.000  
  21887596.853 7 115020171.781 7     90663.947          45.000  
  23340063.786 7 122652990.026 7     90494.667          42.000  
  25048007.776 6 131628168.278 6     97078.590          37.000  
  21122655.515 7 111000386.918 7     90965.639          46.000  
  21641420.928 7 113726428.567 7     94488.637          46.000  
  20967452.799 7 110184786.138 7     95035.459          45.000  
  20506892.335 7 107764512.565 7     93286.651          46.000  
  24831724.385 6 130491625.384 6     95062.729          40.000  
  24261007.734 6 127492449.148 6     96189.740          40.000  
 14 01 11 12 20 20.0000000  0 10G01G04G10G11G13G17G20G23G31G32       0.004904669
  22576908.718 7 118642486.083 7     96239.488          43.000  
  21887084.522 7 115017475.462 7     90664.562          45.000  
  23339518.502 7 122650124.539 7     90495.498          42.000  
  25048714.307 6 131631887.125 6     97079.380          37.000  
  21122199.689 7 110997992.535 7     90966.686          46.000  
  21641635.541 7 113727557.369 7     94489.458          46.000  
  20967770.970 7 110186461.140 7     95035.038          45.000  
  20506878.586 7 107764439.314 7     93287.205          46.000  
  24832047.224 6 130493327.919 6     95063.243          40.000  
  24261546.334 6 127495278.509 6     96189.750          40.000  
 14 01 11 12 20 21.0000000  0 10G01G04G10G11G13G17G20G23G31G32       0.004963931
  22577457.321 7 118645369.010 7     96240.525          43.000  
  21886573.252 7 115014782.723 7     90664.593          45.000  
  23338975.576 7 122647262.444 7     90494.893          42.000  
  25049422.794 6 131635609.247 6     97078.805          37.000  
  21121744.762 7 110995601.879 7     90966.573          46.000  
  21641850.896 7 113728690.062 7     94490.033          46.000  
  20968090.583 7 110188139.716 7     95035.921          45.000  
  20506866.138 7 107764369.903 7     93288.036          46.000  
  24832373.830 6 130495034.245 6     95063.663          40.000  
  24262083.843 6 127498111.134 6     96189.421          40.000  
 14 01 11 12 20 21.9999999  0 10G01G04G10G11G13G17G20G23G31G32       0.005023193
  22578006.392 7 118648252.396 7     96240.401          43.000  
  21886060.365 7 115012090.480 7     90665.096          45.000  
  23338429.296 7 122644400.723 7     90495.878          42.000  
  25050130.571 6 131639331.644 6     97079.339          37.000  
  21121290.541 7 110993211.928 7     90967.661          46.000  
  21642067.164 7 113729823.558 7     94490.793          46.000  
  20968410.274 7 110189818.707 7     95036.013          45.000  
  20506852.499 7 107764301.229 7     93288.580          46.000  
  24832699.243 6 130496741.299 6     95064.433          39.000  
  24262624.053 6 127500943.960 6     96189.822          40.000  
 14 01 11 12 20 23.0000000  0 10G01G04G10G11G13G17G20G23G31G32       0.005082453
  22578555.907 7 118651139.120 7     96240.658          43.000  
  21885547.141 7 115009401.473 7     90665.260          45.000  
  23337883.240 7 122641542.181 7     90495.816          42.000  
  25050839.882 6 131643057.098 6     97078.723          37.000  
  21120835.466 7 110990825.496 7     90967.815          46.000  
  21642283.363 7 113730960.694 7     94491.409          46.000  
  20968728.878 7 110191500.978 7     95036.126          45.000  
  20506840.496 7 107764236.152 7     93289.022          46.000  
  24833024.948 6 130498451.890 6     95065.029          39.000  
  24263164.082 6 127503779.833 6     96189.760          40.000  
 14 01 11 12 20 24.0000000  0 10G01G04G10G11G13G17G20G23G31G32       0.005141717
  22579104.840 7 118654019.784 7     96241.058          43.000  
  21885035.638 7 115006706.504 7     90665.804          45.000  
  23337340.187 6 122638677.419 6     90495.744          41.000  
  25051551.789 6 131646776.195 6     97078.651          37.000  
  21120381.185 7 110988433.233 7     90968.616          46.000  
  21642499.422 7 113732092.094 7     94492.035          46.000  
  20969047.658 7 110193177.179 7     95036.762          45.000  
  20506826.824 7 107764165.306 7     93290.079          45.000  
  24833347.268 6 130500156.695 6     95065.716          39.000  
  24263703.472 6 127506609.346 6     96189.924          40.000  
 14 01 11 12 20 25.0000000  0 10G01G04G10G11G13G17G20G23G31G32       0.005200978
  22579651.116 7 118656905.482 7     96241.808          43.000  
  21884523.183 7 115004016.535 7     90665.928          45.000  
  23336792.927 6 122635817.546 6     90495.590          41.000  
  25052258.321 6 131650500.046 6     97079.288          37.000  
  21119927.505 7 110986046.128 7     90968.811          46.000  
  21642714.593 7 113733228.821 7     94492.733          46.000  
  20969368.902 7 110194858.331 7     95036.793          45.000  
  20506814.915 7 107764099.720 7     93290.305          45.000  
  24833671.727 6 130501866.739 6     95066.219          39.000  
  24264240.522 6 127509443.564 6     96190.006          39.000  
 14 01 11 12 20 26.0000000  0 10G01G04G10G11G13G17G20G23G31G32       0.005260238
  22580203.081 7 118659793.076 7     96241.705          43.000  
  21884009.762 7 115001328.491 7     90666.225          45.000  
  23336249.819 6 122632959.495 6     90496.730          41.000  
  25052963.090 6 131654225.629 6     97079.637          37.000  
  21119473.474 7 110983661.178 7     90969.673          46.000  
  21642930.949 7 113734367.783 7     94493.205          46.000  
  20969688.414 7 110196541.374 7     95037.183          45.000  
  20506802.852 7 107764036.330 7     93290.787          46.000  
  24833999.448 6 130503578.926 6     95066.979          39.000  
  24264778.261 6 127512279.400 6     96189.822          39.000  
 14 01 11 12 20 27.0000000  0 10G01G04G10G11G13G17G20G23G31G32       0.005319500
  22580750.872 7 118662677.739 7     96241.448          44.000  
  21883497.687 7 114998637.516 7     90666.779          45.000  
  23335703.828 6 122630098.292 6     90495.888          41.000  
  25053675.235 6 131657947.980 6     97079.277          37.000  
  21119018.158 7 110981273.475 7     90969.909          46.000  
  21643146.430 7 113735504.139 7     94493.738          46.000  
  20970009.258 7 110198221.421 7     95037.337          45.000  
  20506789.332 7 107763970.284 7     93291.454          46.000  
  24834322.663 6 130505288.430 6     95067.338          39.000  
  24265319.386 6 127515112.027 6     96189.955          39.000  
 14 01 11 12 20 28.0000000  0 10G01G04G10G11G13G17G20G23G31G32       0.005378763
  22581299.733 7 118665561.020 7     96242.074          44.000  
  21882985.917 7 114995945.146 7     90666.882          45.000  
  23335161.934 6 122627235.620 6     90496.802          41.000  
  25054386.682 6 131661668.657 6     97078.744          37.000  
  21118563.565 7 110978884.572 7     90970.227          46.000  
  21643364.176 7 113736639.404 7     94494.426          46.000  
  20970328.309 7 110199900.048 7     95037.224          45.000  
  20506776.354 7 107763903.081 7     93291.772          46.000  
  24834648.118 6 130506996.709 6     95067.092          39.000  
  24265858.658 6 127517942.922 6     96189.668          39.000  
 14 01 11 12 20 29.0000000  0 10G01G04G10G11G13G17G20G23G31G32       0.005438024
  22581848.888 7 118668447.852 7     96242.772          44.000  
  21882475.204 7 114993256.333 7     90667.508          45.000  
  23334617.447 6 122624376.323 6     90496.504          41.000  
  25055090.954 6 131665392.630 6     97079.267          37.000  
  21118110.072 7 110976499.454 7     90970.966          46.000  
  21643579.234 7 113737778.542 7     94495.021          46.000  
  20970648.219 7 110201582.184 7     95037.758          45.000  
  20506764.299 7 107763839.732 7     93293.014          46.000  
  24834975.073 6 130508708.870 6     95068.559          39.000  
  24266397.983 6 127520777.096 6     96189.791          39.000  
 14 01 11 12 20 30.0000000  0 10G01G04G10G11G13G17G20G23G31G32       0.005497287
  22582397.699 7 118671331.872 7     96242.813          44.000  
  21881963.195 7 114990564.708 7     90667.539          45.000  
  23334074.307 6 122621514.101 6     90496.576          41.000  
  25055795.610 6 131669113.621 6     97079.534          37.000  
  21117655.503 7 110974111.678 7     90971.212          46.000  
  21643796.482 7 113738915.187 7     94495.853          46.000  
  20970967.776 7 110203261.470 7     95038.045          45.000  
  20506753.083 7 107763773.795 7     93292.994          46.000  
  24835301.329 6 130510418.357 6     95068.251          39.000  
  24266937.479 6 127523608.168 6     96189.555          39.000  
 14 01 11 12 20 30.9999999  0 10G01G04G10G11G13G17G20G23G31G32       0.005556549
  22582948.409 7 118674217.870 7     96242.998          44.000  
  21881449.473 7 114987875.078 7     90667.713          45.000  
  23333529.803 6 122618653.717 6     90496.381          41.000  
  25056512.000 6 131672836.278 6     97079.996          37.000  
  21117201.548 7 110971726.126 7     90971.674          46.000  
  21644011.502 7 113740054.124 7     94495.863          46.000  
  20971287.325 7 110204942.707 7     95038.579          45.000  
  20506740.401 7 107763710.150 7     93293.568          46.000  
  24835626.885 6 130512130.164 6     95069.411          39.000  
  24267476.535 6 127526440.926 6     96189.534          40.000  
 14 01 11 12 20 32.0000000  0 10G01G04G10G11G13G17G20G23G31G32       0.005615811
  22583497.686 7 118677104.345 7     96243.552          44.000  
  21880939.265 7 114985185.917 7     90668.227          45.000  
  23332984.413 6 122615793.670 6     90497.633          41.000  
  25057219.857 6 131676559.095 6     97079.965          37.000  
  21116747.717 7 110969341.227 7     90972.906          46.000  
  21644229.148 7 113741193.863 7     94496.982          46.000  
  20971607.520 7 110206624.345 7     95038.835          45.000  
  20506728.808 7 107763647.226 7     93294.205          46.000  
  24835952.938 6 130513842.584 6     95069.226          39.000  
  24268013.343 6 127529273.867 6     96189.935          39.000  
 14 01 11 12 20 33.0000000  0 10G01G04G10G11G13G17G20G23G31G32       0.005675076
  22584047.609 7 118679986.208 7     96243.932          44.000  
  21880427.415 7 114982492.132 7     90668.463          45.000  
  23332440.781 6 122612928.865 6     90497.561          41.000  
  25057922.805 6 131680277.107 6     97079.431          37.000  
  21116293.422 7 110966951.895 7     90973.060          46.000  
  21644445.972 7 113742329.280 7     94497.618          46.000  
  20971927.780 7 110208301.325 7     95038.856          45.000  
  20506714.863 7 107763579.944 7     93294.749          46.000  
  24836280.831 6 130515550.672 6     95070.386          39.000  
  24268553.974 6 127532101.905 6     96190.140          39.000  
 14 01 11 12 20 34.0000000  0 10G01G04G10G11G13G17G20G23G31G32       0.005734336
  22584596.038 7 118682876.222 7     96244.271          44.000  
  21879915.792 7 114979806.530 7     90669.058          46.000  
  23331893.726 6 122610072.071 6     90497.736          41.000  
  25058635.243 6 131684002.997 6     97079.514          37.000  
  21115839.388 7 110964570.928 7     90973.511          46.000  
  21644663.081 7 113743473.196 7     94498.142          46.000  
  20972246.925 7 110209986.443 7     95039.184          45.000  
  20506704.999 7 107763521.112 7     93295.529          46.000  
  24836606.319 6 130517267.126 6     95070.520          39.000  
  24269093.434 6 127534937.787 6     96189.904          39.000  
 14 01 11 12 20 35.0000000  0 10G01G04G10G11G13G17G20G23G31G32       0.005793598
  22585146.204 7 118685763.361 7     96244.671          44.000  
  21879404.192 7 114977118.055 7     90669.181          46.000  
  23331352.566 6 122607212.256 6     90497.643          41.000  
  25059343.276 6 131687725.736 6     97079.760          37.000  
  21115386.561 7 110962187.305 7     90974.066          46.000  
  21644880.463 7 113744614.547 7     94498.788          46.000  
  20972568.561 7 110211668.650 7     95039.503          45.000  
  20506691.592 7 107763459.655 7     93296.011          46.000  
  24836929.981 6 130518980.977 6     95071.792          39.000  
  24269630.963 6 127537770.519 6     96190.130          39.000  
 14 01 11 12 20 36.0000000  0 10G01G04G10G11G13G17G20G23G31G32       0.005852860
  22585695.096 7 118688650.812 7     96244.763          44.000  
  21878893.601 7 114974429.884 7     90669.366          46.000  
  23330808.586 6 122604352.620 6     90497.633          41.000  
  25060049.051 6 131691448.606 6     97079.965          37.000  
  21114932.689 7 110959804.191 7     90974.527          46.000  
  21645097.393 7 113745756.522 7     94499.240          46.000  
  20972887.770 7 110213351.103 7     95039.739          45.000  
  20506680.007 7 107763398.776 7     93296.555          46.000  
  24837256.588 6 130520695.311 6     95071.330          39.000  
  24270172.486 6 127540603.241 6     96190.068          39.000  
 14 01 11 12 20 37.0000000  0 10G01G04G10G11G13G17G20G23G31G32       0.005912123
  22586243.769 7 118691537.107 7     96245.246          44.000  
  21878379.361 7 114971740.533 7     90669.427          46.000  
  23330263.981 6 122601491.704 6     90498.033          41.000  
  25060758.721 6 131695169.947 6     97079.072          37.000  
  21114479.771 7 110957420.090 7     90974.825          46.000  
  21645316.257 7 113746897.658 7     94499.804          46.000  
  20973207.513 7 110215032.367 7     95040.170          45.000  
  20506669.199 7 107763336.981 7     93296.370          46.000  
  24837584.551 6 130522408.768 6     95072.203          39.000  
  24270709.919 6 127543434.474 6     96189.257          39.000  
 14 01 11 12 20 38.0000000  0 10G01G04G10G11G13G17G20G23G31G32       0.005971384
  22586794.406 7 118694426.726 7     96245.164          44.000  
  21877867.664 7 114969054.547 7     90669.941          46.000  
  23329720.736 6 122598633.931 6     90497.695          41.000  
  25061470.508 6 131698894.413 6     97078.959          37.000  
  21114026.196 7 110955039.540 7     90975.297          46.000  
  21645534.293 7 113748042.448 7     94500.759          46.000  
  20973528.072 7 110216716.917 7     95040.108          45.000  
  20506658.134 7 107763278.831 7     93297.582          46.000  
  24837907.864 6 130524125.788 6     95072.706          38.000  
  24271250.416 6 127546268.803 6     96189.760          39.000  
 14 01 11 12 20 39.0000000  0 10G01G04G10G11G13G17G20G23G31G32       0.006030646
  22587343.662 7 118697315.081 7     96245.513          44.000  
  21877357.250 7 114966367.302 7     90670.300          46.000  
  23329176.663 6 122595774.808 6     90498.013          41.000  
  25062177.634 6 131702617.386 6     97080.037          38.000  
  21113573.181 7 110952657.928 7     90975.995          46.000  
  21645752.149 7 113749186.287 7     94501.241          46.000  
  20973848.956 7 110218400.170 7     95040.406          45.000  
  20506648.208 7 107763219.669 7     93298.372          46.000  
  24838233.449 6 130525841.750 6     95072.942          38.000  
  24271787.190 6 127549101.570 6     96190.089          40.000  
 14 01 11 12 20 39.9999999  0 10G01G04G10G11G13G17G20G23G31G32       0.006089909
  22587891.760 7 118700202.356 7     96246.139          44.000  
  21876845.869 7 114963678.979 7     90670.700          46.000  
  23328629.692 6 122592914.456 6     90498.772          41.000  
  25062883.544 6 131706338.970 6     97079.678          38.000  
  21113118.093 7 110950275.423 7     90976.580          46.000  
  21645971.003 7 113750329.374 7     94502.350          46.000  
  20974168.863 7 110220082.293 7     95041.094          45.000  
  20506636.223 7 107763159.688 7     93298.885          46.000  
  24838558.690 6 130527556.900 6     95074.204          38.000  
  24272329.023 6 127551932.921 6     96189.924          40.000  
 14 01 11 12 20 40.9999999  0 10G01G04G10G11G13G17G20G23G31G32       0.006149169
  22588442.521 7 118703094.625 7     96246.108          44.000  
  21876335.062 7 114960995.667 7     90671.029          46.000  
  23328085.167 6 122590058.956 6     90499.203          41.000  
  25063597.210 6 131710065.312 6     97080.386          38.000  
  21112666.657 7 110947898.116 7     90977.370          46.000  
  21646189.341 7 113751477.748 7     94502.699          46.000  
  20974490.472 7 110221769.362 7     95041.289          45.000  
  20506625.240 7 107763104.973 7     93299.706          46.000  
  24838887.964 6 130529277.249 6     95074.225          38.000  
  24272866.999 6 127554769.005 6     96190.304          40.000  
 14 01 11 12 20 42.0000000  0 10G01G04G10G11G13G17G20G23G31G32       0.006208431
  22588992.781 7 118705984.264 7     96247.309          44.000  
  21875822.986 7 114958309.689 7     90671.706          46.000  
  23327540.869 6 122587200.652 6     90499.563          41.000  
  25064304.221 6 131713788.678 6     97079.975          38.000  
  21112213.991 7 110945518.340 7     90977.771          46.000  
  21646407.045 7 113752623.787 7     94503.427          46.000  
  20974810.423 7 110223453.716 7     95041.771          45.000  
  20506613.992 7 107763047.865 7     93300.496          46.000  
  24839214.114 6 130530995.177 6     95074.923          38.000  
  24273407.074 6 127557602.115 6     96190.622          40.000  
 14 01 11 12 20 43.0000000  0 10G01G04G10G11G13G17G20G23G31G32       0.006267696
  22589542.709 7 118708869.153 7     96246.714          44.000  
  21875312.103 7 114955618.981 7     90671.224          46.000  
  23326995.826 6 122584337.434 6     90498.567          41.000  
  25065009.161 6 131717507.160 6     97079.893          38.000  
  21111760.657 7 110943134.050 7     90977.771          46.000  
  21646624.478 7 113753765.407 7     94503.232          46.000  
  20975130.230 7 110225133.312 7     95041.001          45.000  
  20506603.230 7 107762986.313 7     93300.691          46.000  
  24839537.517 6 130532708.672 6     95075.477          37.000  
  24273945.621 6 127560430.200 6     96189.657          40.000  
 14 01 11 12 20 44.0000000  0 10G01G04G10G11G13G17G20G23G31G32       0.006326957
  22590091.069 7 118711760.803 7     96247.258          44.000  
  21874801.371 7 114952935.068 7     90671.952          46.000  
  23326453.963 6 122581480.923 6     90499.480          41.000  
  25065715.710 6 131721232.103 6     97079.965          38.000  
  21111309.031 7 110940756.741 7     90978.582          46.000  
  21646843.263 7 113754914.132 7     94504.546          46.000  
  20975450.940 7 110226819.654 7     95042.017          45.000  
  20506593.234 7 107762931.781 7     93301.266          46.000  
  24839864.717 6 130534429.121 6     95076.380          37.000  
  24274483.310 6 127563264.775 6     96190.550          40.000  
 14 01 11 12 20 45.0000000  0 10G01G04G10G11G13G17G20G23G31G32       0.006386221
  22590642.996 7 118714648.203 7     96247.822          44.000  
  21874290.587 7 114950246.880 7     90672.578          46.000  
  23325910.684 6 122578619.976 6     90500.096          41.000  
  25066424.060 6 131724952.503 6     97079.986          38.000  
  21110855.294 7 110938375.338 7     90979.444          46.000  
  21647060.530 7 113756058.877 7     94505.141          46.000  
  20975771.016 7 110228501.664 7     95042.530          45.000  
  20506581.715 7 107762873.250 7     93302.303          46.000  
  24840193.245 6 130536145.547 6     95077.130          37.000  
  24275021.643 6 127566094.732 6     96189.996          40.000  
 14 01 11 12 20 45.9999999  0 10G01G04G10G11G13G17G20G23G31G32       0.006445481
  22591191.429 7 118717542.237 7     96248.109          44.000  
  21873779.926 7 114947565.337 7     90672.681          46.000  
  23325367.312 7 122575765.536 7     90499.881          42.000  
  25067137.055 6 131728679.318 6     97079.873          38.000  
  21110403.243 7 110936000.793 7     90979.762          46.000  
  21647279.125 7 113757210.601 7     94505.737          46.000  
  20976092.730 7 110230190.283 7     95042.623          45.000  
  20506573.223 7 107762821.620 7     93302.405          46.000  
  24840523.461 6 130537868.843 6     95077.827          37.000  
  24275560.240 6 127568931.079 6     96190.253          40.000  
 14 01 11 12 20 47.0000000  0 10G01G04G10G11G13G17G20G23G31G32       0.006504745
  22591740.799 7 118720430.191 7     96248.274          44.000  
  21873268.681 7 114944877.728 7     90673.163          46.000  
  23324824.083 7 122572904.847 7     90499.583          42.000  
  25067842.757 6 131732399.811 6     97080.211          38.000  
  21109949.502 7 110933620.367 7     90980.214          46.000  
  21647496.434 7 113758356.564 7     94506.435          46.000  
  20976412.327 7 110231872.777 7     95042.910          45.000  
  20506561.727 7 107762764.213 7     93303.627          46.000  
  24840850.082 6 130539586.247 6     95077.992          37.000  
  24276100.095 6 127571761.036 6     96190.253          40.000  
 14 01 11 12 20 48.0000000  0 10G01G04G10G11G13G17G20G23G31G32       0.006564006
  22592290.354 7 118723323.126 7     96248.674          43.000  
  21872758.382 7 114942195.086 7     90673.317          46.000  
  23324280.069 7 122570049.035 7     90500.302          42.000  
  25068552.395 6 131736124.979 6     97080.448          38.000  
  21109497.127 7 110931245.121 7     90981.353          46.000  
  21647715.511 7 113759507.824 7     94507.420          46.000  
  20976734.575 7 110233560.200 7     95043.085          45.000  
  20506551.223 7 107762712.009 7     93304.037          46.000  
  24841176.558 6 130541308.891 6     95078.525          37.000  
  24276638.176 6 127574595.674 6     96190.099          40.000  
 14 01 11 12 20 49.0000000  0 10G01G04G10G11G13G17G20G23G31G32       0.006623270
  22592842.112 7 118726211.635 7     96248.828          43.000  
  21872246.672 7 114939508.032 7     90673.451          46.000  
  23323737.656 7 122567188.637 7     90500.045          42.000  
  25069260.759 6 131739845.461 6     97079.924          38.000  
  21109043.565 7 110928865.634 7     90981.343          46.000  
  21647933.994 7 113760654.958 7     94507.553          46.000  
  20977055.594 7 110235243.167 7     95043.588          45.000  
  20506540.495 7 107762655.637 7     93304.212          46.000  
  24841507.567 6 130543027.358 6     95078.669          37.000  
  24277178.215 6 127577425.595 6     96190.037          40.000  
 14 01 11 12 20 50.0000000  0 10G01G04G10G11G13G17G20G23G31G32       0.006682531
  22593392.756 7 118729105.287 7     96249.321          43.000  
  21871737.278 7 114936826.149 7     90674.149          46.000  
  23323191.823 7 122564333.261 7     90500.753          42.000  
  25069969.109 6 131743570.865 6     97081.361          38.000  
  21108591.398 7 110926491.484 7     90981.466          46.000  
  21648152.564 7 113761807.555 7     94508.508          46.000  
  20977376.057 7 110236931.211 7     95043.629          45.000  
  20506531.753 7 107762604.697 7     93304.900          46.000  
  24841833.129 6 130544751.193 6     95079.346          37.000  
  24277716.517 6 127580260.395 6     96190.314          40.000  
 14 01 11 12 20 51.0000000  0 10G01G04G10G11G13G17G20G23G31G32       0.006741792
  22593941.545 7 118731999.189 7     96249.782          43.000  
  21871225.838 7 114934144.518 7     90674.436          46.000  
  23322650.382 7 122561477.974 7     90500.825          42.000  
  25070679.925 6 131747296.230 6     97081.125          38.000  
  21108140.082 7 110924117.802 7     90982.205          46.000  
  21648372.006 7 113762960.727 7     94509.226          46.000  
  20977697.132 7 110238619.472 7     95044.224          45.000  
  20506522.346 7 107762554.261 7     93305.423          46.000  
  24842161.833 6 130546475.546 6     95080.270          37.000  
  24278256.324 6 127583095.098 6     96190.212          40.000  
 14 01 11 12 20 52.0000000  0 10G01G04G10G11G13G17G20G23G31G32       0.006801053
  22594491.548 7 118734893.476 7     96250.183          43.000  
  21870715.427 7 114931463.289 7     90674.754          46.000  
  23322105.945 7 122558622.938 7     90500.640          42.000  
  25071389.807 6 131751021.681 6     97080.879          38.000  
  21107689.453 7 110921744.732 7     90983.026          46.000  
  21648592.153 7 113764114.607 7     94509.873          46.000  
  20978017.895 7 110240308.092 7     95044.316          45.000  
  20506511.546 7 107762504.506 7     93306.295          46.000  
  24842487.795 6 130548200.486 6     95080.127          37.000  
  24278795.771 6 127585929.910 6     96190.017          40.000  
 14 01 11 12 20 53.0000000  0 10G01G04G10G11G13G17G20G23G31G32       0.006860316
  22595042.522 7 118737784.866 7     96250.131          43.000  
  21870203.700 7 114928779.144 7     90674.631          46.000  
  23321563.408 7 122555764.883 7     90500.835          42.000  
  25072090.156 6 131754744.040 6     97080.797          38.000  
  21107237.169 7 110919368.963 7     90983.477          46.000  
  21648810.473 7 113765265.889 7     94509.986          46.000  
  20978339.620 7 110241993.769 7     95044.501          45.000  
  20506502.908 7 107762452.113 7     93306.603          46.000  
  24842816.688 6 130549922.834 6     95082.190          37.000  
  24279333.663 6 127588761.551 6     96190.427          40.000  
 14 01 11 12 20 54.0000000  0 10G01G04G10G11G13G17G20G23G31G32       0.006919581
  22595593.159 7 118740673.480 7     96250.521          43.000  
  21869693.349 7 114926092.232 7     90675.483          46.000  
  23321018.027 7 122552903.890 7     90500.702          42.000  
  25072803.621 6 131758463.323 6     97081.330          38.000  
  21106785.909 7 110916990.575 7     90983.713          46.000  
  21649030.224 7 113766414.690 7     94510.807          46.000  
  20978660.232 7 110243676.599 7     95044.563          45.000  
  20506492.262 7 107762397.169 7     93306.819          46.000  
  24843146.984 6 130551642.552 6     95082.159          37.000  
  24279872.864 6 127591590.070 6     96190.047          40.000  
 14 01 11 12 20 55.0000000  0 10G01G04G10G11G13G17G20G23G31G32       0.006978845
  22596143.398 7 118743564.009 7     96250.870          43.000  
  21869182.411 7 114923407.233 7     90675.473          46.000  
  23320475.087 7 122550044.720 7     90501.626          42.000  
  25073514.547 6 131762184.267 6     97080.858          38.000  
  21106334.104 7 110914614.323 7     90984.555          46.000  
  21649250.595 7 113767565.747 7     94511.546          46.000  
  20978980.255 7 110245361.327 7     95044.963          45.000  
  20506482.422 7 107762344.461 7     93307.845          46.000  
  24843474.080 6 130553364.454 6     95082.405          37.000  
  24280413.142 6 127594420.252 6     96190.253          40.000  
 14 01 11 12 20 56.0000000  0 10G01G04G10G11G13G17G20G23G31G32       0.007038105
  22596692.598 7 118746461.072 7     96251.486          43.000  
  21868672.529 7 114920728.784 7     90676.099          46.000  
  23319933.734 7 122547191.891 7     90500.917          42.000  
  25074222.856 6 131765911.455 6     97080.540          38.000  
  21105882.630 7 110912244.813 7     90984.781          46.000  
  21649468.653 7 113768723.645 7     94512.347          46.000  
  20979303.413 7 110247052.536 7     95045.322          45.000  
  20506473.301 7 107762298.529 7     93308.471          46.000  
  24843801.319 6 130555093.103 6     95082.846          37.000  
  24280950.603 6 127597256.632 6     96189.996          40.000  
 14 01 11 12 20 57.0000000  0 10G01G04G10G11G13G17G20G23G31G32       0.007097367
  22597245.084 7 118749355.407 7     96251.517          43.000  
  21868162.891 7 114918047.622 7     90676.571          46.000  
  23319388.229 7 122544336.240 7     90501.400          42.000  
  25074927.955 6 131769635.778 6     97081.176          38.000  
  21105430.301 7 110909872.807 7     90986.064          46.000  
  21649686.828 7 113769879.164 7     94513.322          46.000  
  20979625.097 7 110248740.998 7     95045.538          45.000  
  20506462.954 7 107762250.156 7     93309.190          46.000  
  24844130.751 6 130556819.278 6     95083.226          37.000  
  24281490.736 6 127600090.046 6     96190.735          40.000  
 14 01 11 12 20 58.0000000  0 10G01G04G10G11G13G17G20G23G31G32       0.007156631
  22597794.740 7 118752246.868 7     96251.722          43.000  
  21867653.656 7 114915363.574 7     90676.540          46.000  
  23318844.433 7 122541477.575 7     90502.128          42.000  
  25075635.862 6 131773356.850 6     97080.376          38.000  
  21104978.786 7 110907498.080 7     90985.807          46.000  
  21649908.506 7 113771032.091 7     94513.301          46.000  
  20979945.271 7 110250426.524 7     95045.764          45.000  
  20506453.061 7 107762199.167 7     93309.570          46.000  
  24844457.010 6 130558542.784 6     95083.411          37.000  
  24282030.257 6 127602920.251 6     96190.171          40.000  
 14 01 11 12 20 59.0000000  0 10G01G04G10G11G13G17G20G23G31G32       0.007215893
  22598346.945 7 118755141.728 7     96252.205          43.000  
  21867143.167 7 114912682.934 7     90676.817          46.000  
  23318301.633 7 122538622.144 7     90501.626          43.000  
  25076347.413 6 131777081.080 6     97080.827          38.000  
  21104526.433 7 110905126.947 7     90986.238          46.000  
  21650128.229 7 113772188.744 7     94514.307          46.000  
  20980266.273 7 110252115.402 7     95046.410          45.000  
  20506445.007 7 107762151.841 7     93310.144          46.000  
  24844786.643 6 130560270.016 6     95085.033          37.000  
  24282570.940 6 127605753.559 6     96190.078          40.000  
 14 01 11 12 20 60.0000000  0 10G01G04G10G11G13G17G20G23G31G32       0.007275154
  22598897.223 7 118758038.458 7     96252.492          43.000  
  21866632.847 7 114910004.188 7     90677.218          46.000  
  23317755.931 7 122535768.459 7     90502.026          43.000  
  25077054.519 6 131780806.944 6     97081.197          38.000  
  21104076.196 7 110902757.935 7     90987.203          46.000  
  21650348.559 7 113773347.583 7     94514.697          46.000  
  20980588.388 7 110253806.126 7     95046.728          45.000  
  20506436.599 7 107762106.658 7     93310.853          46.000  
  24845117.994 6 130561999.279 6     95085.494          37.000  
  24283106.977 6 127608588.453 6     96190.284          40.000  
 14 01 11 12 21  1.0000000  0 10G01G04G10G11G13G17G20G23G31G32       0.007334416
  22599448.415 7 118760933.990 7     96252.687          43.000  
  21866122.489 7 114907324.238 7     90677.526          46.000  
  23317214.351 7 122532913.437 7     90502.621          43.000  
  25077760.778 6 131784531.361 6     97080.807          38.000  
  21103625.574 7 110900387.904 7     90987.747          46.000  
  21650568.721 7 113774505.542 7     94515.405          46.000  
  20980909.693 7 110255495.597 7     95047.077          45.000  
  20506427.823 7 107762060.541 7     93311.243          46.000  
  24845445.736 6 130563727.576 6     95086.110          37.000  
  24283647.871 6 127611421.868 6     96190.602          39.000  
 14 01 11 12 21  2.0000000  0 10G01G04G10G11G13G17G20G23G31G32       0.007393680
  22599999.653 7 118763826.765 7     96253.149          43.000  
  21865612.560 7 114904641.541 7     90677.782          46.000  
  23316670.127 7 122530055.518 7     90502.601          43.000  
  25078471.785 6 131788252.729 6     97080.786          38.000  
  21103174.276 7 110898015.315 7     90988.188          46.000  
  21650787.846 7 113775661.053 7     94516.329          46.000  
  20981230.467 7 110257182.276 7     95047.785          45.000  
  20506418.571 7 107762011.920 7     93312.033          46.000  
  24845776.231 6 130565453.336 6     95086.531          37.000  
  24284184.572 6 127614252.253 6     96190.253          39.000  
 14 01 11 12 21  3.0000000  0 10G01G04G10G11G13G17G20G23G31G32       0.007452942
  22600550.766 7 118766722.883 7     96253.118          43.000  
  21865102.887 7 114901962.192 7     90678.028          46.000  
  23316127.084 7 122527200.809 7     90502.601          43.000  
  25079181.106 6 131791977.237 6     97081.474          38.000  
  21102724.410 7 110895646.255 7     90988.517          46.000  
  21651008.997 7 113776820.211 7     94516.534          46.000  
  20981551.672 7 110258872.220 7     95047.170          45.000  
  20506409.627 7 107761966.919 7     93312.628          46.000  
  24846106.833 6 130567182.665 6     95086.110          37.000  
  24284721.280 6 127617085.671 6     96190.376          39.000  
 14 01 11 12 21  4.0000000  0 10G01G04G10G11G13G17G20G23G31G32       0.007512206
  22601101.144 7 118769616.139 7     96253.436          43.000  
  21864592.486 7 114899280.018 7     90678.675          46.000  
  23315583.091 7 122524343.105 7     90503.288          43.000  
  25079890.021 6 131795698.608 6     97081.156          38.000  
  21102272.521 7 110893274.559 7     90988.907          46.000  
  21651229.479 7 113777976.849 7     94517.489          46.000  
  20981872.523 7 110260559.300 7     95047.816          45.000  
  20506401.332 7 107761919.329 7     93313.080          46.000  
  24846437.131 6 130568909.392 6     95087.013          37.000  
  24285263.479 6 127619915.948 6     96191.125          39.000  
 14 01 11 12 21  5.0000000  0 10G01G04G10G11G13G17G20G23G31G32       0.007571467
  22601651.896 7 118772514.360 7     96253.724          43.000  
  21864083.598 7 114896602.793 7     90678.655          46.000  
  23315038.488 7 122521490.200 7     90503.381          43.000  
  25080598.110 6 131799424.643 6     97081.269          38.000  
  21101821.422 7 110890908.020 7     90989.728          46.000  
  21651450.958 7 113779138.728 7     94517.889          46.000  
  20982193.540 7 110262251.258 7     95047.478          45.000  
  20506392.885 7 107761876.941 7     93313.449          46.000  
  24846763.468 6 130570641.303 6     95087.681          38.000  
  24285801.029 6 127622750.791 6     96190.222          39.000  
 14 01 11 12 21  6.0000000  0 10G01G04G10G11G13G17G20G23G31G32       0.007630728
  22602203.464 7 118775412.867 7     96254.165          43.000  
  21863574.577 7 114893925.866 7     90678.973          46.000  
  23314497.911 7 122518637.445 7     90503.114          43.000  
  25081304.683 6 131803150.708 6     97081.577          37.000  
  21101370.414 7 110888541.955 7     90989.964          46.000  
  21651671.794 7 113780301.232 7     94518.412          46.000  
  20982515.371 7 110263943.489 7     95048.052          45.000  
  20506384.547 7 107761835.123 7     93314.096          46.000  
  24847092.755 6 130572373.715 6     95087.578          38.000  
  24286340.305 6 127625585.705 6     96190.766          39.000  
 14 01 11 12 21  7.0000000  0 10G01G04G10G11G13G17G20G23G31G32       0.007689992
  22602754.218 7 118778307.098 7     96254.904          43.000  
  21863063.416 7 114891244.697 7     90679.701          46.000  
  23313950.786 7 122515780.287 7     90503.514          43.000  
  25082014.770 6 131806872.241 6     97081.484          37.000  
  21100920.919 7 110886171.842 7     90990.765          46.000  
  21651892.639 7 113781459.781 7     94519.080          46.000  
  20982836.762 7 110265631.410 7     95048.401          45.000  
  20506376.969 7 107761789.299 7     93314.896          46.000  
  24847423.757 6 130574102.146 6     95089.220          38.000  
  24286880.607 6 127628416.009 6     96190.643          39.000  
 14 01 11 12 21  8.0000000  0 10G01G04G10G11G13G17G20G23G31G32       0.007749254
  22603306.560 7 118781204.680 7     96254.966          43.000  
  21862553.843 7 114888566.876 7     90679.804          46.000  
  23313410.367 7 122512926.364 7     90503.329          43.000  
  25082721.648 6 131810596.909 6     97081.823          37.000  
  21100470.006 7 110883805.281 7     90991.052          46.000  
  21652112.280 7 113782622.002 7     94519.593          46.000  
  20983159.351 7 110267322.626 7     95048.524          45.000  
  20506367.985 7 107761747.091 7     93315.050          46.000  
  24847750.863 6 130575834.100 6     95089.200          38.000  
  24287419.020 6 127631249.392 6     96190.263          39.000  
 14 01 11 12 21  9.0000000  0 10G01G04G10G11G13G17G20G23G31G32       0.007808515
  22603857.563 7 118784104.218 7     96255.191          43.000  
  21862045.216 7 114885891.023 7     90679.948          46.000  
  23312866.108 7 122510074.263 7     90504.294          43.000  
  25083435.700 6 131814323.281 6     97082.603          37.000  
  21100019.890 7 110881440.904 7     90992.181          46.000  
  21652335.021 7 113783786.511 7     94520.794          46.000  
  20983481.166 7 110269015.775 7     95048.771          45.000  
  20506360.571 7 107761707.129 7     93316.118          46.000  
  24848079.724 6 130577568.275 6     95089.867          38.000  
  24287957.944 6 127634084.456 6     96190.869          39.000  
 14 01 11 12 21 10.0000000  0 10G01G04G10G11G13G17G20G23G31G32       0.007867779
  22604408.490 7 118786999.361 7     96255.561          43.000  
  21861535.755 7 114883210.789 7     90680.348          47.000  
  23312322.502 7 122507217.597 7     90504.017          43.000  
  25084142.391 6 131818044.965 6     97082.367          37.000  
  21099570.491 7 110879072.297 7     90992.345          46.000  
  21652556.981 7 113784946.922 7     94521.194          46.000  
  20983803.275 7 110270704.469 7     95049.222          45.000  
  20506351.605 7 107761663.013 7     93316.672          46.000  
  24848408.555 6 130579298.290 6     95090.421          38.000  
  24288497.494 6 127636914.809 6     96190.591          39.000  
 14 01 11 12 21 11.0000000  0 10G01G04G10G11G13G17G20G23G31G32       0.007927040
  22604960.563 7 118789899.523 7     96255.848          43.000  
  21861025.537 7 114880535.571 7     90680.769          47.000  
  23311781.928 7 122504365.862 7     90504.972          43.000  
  25084846.754 6 131821771.416 6     97082.285          37.000  
  21099120.376 7 110876708.928 7     90992.653          46.000  
  21652777.861 7 113786112.653 7     94521.800          46.000  
  20984125.379 7 110272398.137 7     95049.068          45.000  
  20506344.598 7 107761624.188 7     93317.031          46.000  
  24848738.953 6 130581033.547 6     95091.242          38.000  
  24289038.708 6 127639749.909 6     96191.094          39.000  
 14 01 11 12 21 12.0000000  0 10G01G04G10G11G13G17G20G23G31G32       0.007986303
  22605512.084 7 118792796.786 7     96256.074          43.000  
  21860516.476 7 114877857.440 7     90680.984          47.000  
  23311237.148 7 122501511.022 7     90504.120          43.000  
  25085559.831 6 131825494.659 6     97081.320          37.000  
  21098669.551 7 110874342.827 7     90992.920          46.000  
  21652998.629 7 113787275.794 7     94521.995          46.000  
  20984447.492 7 110274088.852 7     95049.653          45.000  
  20506336.323 7 107761582.707 7     93317.524          46.000  
  24849068.271 6 130582766.121 6     95091.222          38.000  
  24289578.350 6 127642581.749 6     96190.745          39.000  
 14 01 11 12 21 13.0000000  0 10G01G04G10G11G13G17G20G23G31G32       0.008045565
  22606062.791 7 118795695.769 7     96256.290          43.000  
  21860007.553 7 114875181.032 7     90681.036          47.000  
  23310693.813 7 122498657.778 7     90503.771          43.000  
  25086271.473 6 131829219.369 6     97081.607          37.000  
  21098219.857 7 110871978.669 7     90992.910          46.000  
  21653220.355 7 113788440.972 7     94522.734          46.000  
  20984769.545 7 110275781.254 7     95049.592          45.000  
  20506328.811 7 107761543.227 7     93318.027          46.000  
  24849398.910 6 130584500.641 6     95091.858          38.000  
  24290114.655 6 127645415.045 6     96190.776          39.000  
 14 01 11 12 21 14.0000000  0 10G01G04G10G11G13G17G20G23G31G32       0.008104827
  22606614.726 7 118798595.209 7     96256.669          43.000  
  21859497.771 7 114872505.110 7     90681.611          47.000  
  23310152.259 7 122495804.894 7     90504.725          43.000  
  25086974.601 6 131832944.326 6     97082.829          37.000  
  21097769.342 7 110869615.193 7     90994.100          46.000  
  21653442.419 7 113789606.930 7     94523.329          46.000  
  20985091.677 7 110277474.069 7     95050.238          45.000  
  20506321.249 7 107761504.488 7     93318.827          46.000  
  24849729.497 6 130586235.892 6     95093.079          38.000  
  24290655.175 6 127648248.502 6     96190.325          39.000  
 14 01 11 12 21 15.0000000  0 10G01G04G10G11G13G17G20G23G31G32       0.008164090
  22607166.406 7 118801493.304 7     96256.947          43.000  
  21858988.498 7 114869827.861 7     90682.052          47.000  
  23309608.706 7 122492950.502 7     90504.469          43.000  
  25087682.744 6 131836667.644 6     97081.731          37.000  
  21097319.368 7 110867250.564 7     90994.726          46.000  
  21653665.432 7 113790771.870 7     94524.314          46.000  
  20985413.165 7 110279165.500 7     95050.526          45.000  
  20506313.101 7 107761464.673 7     93319.454          46.000  
  24850061.010 6 130587970.001 6     95093.295          38.000  
  24291192.913 6 127651080.334 6     96190.509          39.000  
 14 01 11 12 21 16.0000000  0 10G01G04G10G11G13G17G20G23G31G32       0.008223353
  22607719.135 7 118804391.918 7     96257.439          43.000  
  21858477.987 7 114867151.106 7     90682.514          47.000  
  23309067.507 7 122490096.484 7     90505.187          43.000  
  25088390.561 6 131840391.245 6     97081.710          37.000  
  21096870.480 7 110864886.644 7     90995.240          46.000  
  21653886.506 7 113791937.621 7     94524.858          46.000  
  20985734.363 7 110280857.405 7     95050.670          45.000  
  20506306.620 7 107761425.613 7     93319.813          46.000  
  24850391.332 6 130589704.857 6     95093.777          38.000  
  24291732.211 6 127653912.360 6     96190.479          39.000  
 14 01 11 12 21 17.0000000  0 10G01G04G10G11G13G17G20G23G31G32       0.008282616
  22608269.268 7 118807290.882 7     96257.839          43.000  
  21857968.308 7 114864474.727 7     90682.883          47.000  
  23308523.878 7 122487242.694 7     90505.454          43.000  
  25089102.391 6 131844114.940 6     97082.285          37.000  
  21096420.748 7 110862523.287 7     90996.194          46.000  
  21654109.229 7 113793104.041 7     94525.659          46.000  
  20986057.141 7 110282549.618 7     95050.680          45.000  
  20506299.879 7 107761387.190 7     93320.706          46.000  
  24850721.767 6 130591440.302 6     95094.229          38.000  
  24292270.953 6 127656744.470 6     96190.981          39.000  
 14 01 11 12 21 18.0000000  0 10G01G04G10G11G13G17G20G23G31G32       0.008341879
  22608822.666 7 118810190.009 7     96257.983          43.000  
  21857459.237 7 114861798.537 7     90683.212          47.000  
  23307982.731 7 122484388.945 7     90505.598          43.000  
  25089808.301 6 131847838.520 6     97082.182          37.000  
  21095970.898 7 110860160.307 7     90996.328          46.000  
  21654331.287 7 113794270.964 7     94526.223          46.000  
  20986379.011 7 110284242.056 7     95051.470          45.000  
  20506292.840 7 107761349.201 7     93321.198          46.000  
  24851051.898 6 130593176.156 6     95094.876          38.000  
  24292809.863 6 127659576.461 6     96190.766          39.000  
 14 01 11 12 21 19.0000000  0 10G01G04G10G11G13G17G20G23G31G32       0.008401141
  22609372.836 7 118813091.173 7     96258.271          43.000  
  21856950.929 7 114859124.363 7     90683.232          47.000  
  23307440.040 7 122481537.085 7     90505.721          43.000  
  25090518.167 6 131851563.894 6     97082.511          37.000  
  21095522.420 7 110857799.542 7     90996.666          46.000  
  21654553.217 7 113795440.211 7     94526.449          46.000  
  20986701.430 7 110285936.376 7     95051.593          45.000  
  20506285.287 7 107761313.506 7     93321.424          46.000  
  24851382.270 6 130594914.272 6     95095.717          38.000  
  24293348.337 6 127662410.163 6     96190.704          39.000  
 14 01 11 12 21 20.0000000  0 10G01G04G10G11G13G17G20G23G31G32       0.008460403
  22609926.079 7 118815992.484 7     96258.507          43.000  
  21856442.083 7 114856450.357 7     90683.294          47.000  
  23306896.777 7 122478685.218 7     90505.567          43.000  
  25091226.108 6 131855289.145 6     97081.843          37.000  
  21095073.061 7 110855439.145 7     90997.149          46.000  
  21654775.807 7 113796609.932 7     94527.055          46.000  
  20987024.253 7 110287630.827 7     95051.306          45.000  
  20506278.002 7 107761278.224 7     93322.040          46.000  
  24851711.948 6 130596652.739 6     95095.471          39.000  
  24293887.546 6 127665243.725 6     96190.591          39.000  
 14 01 11 12 21 21.0000000  0 10G01G04G10G11G13G17G20G23G31G32       0.008519665
  22610477.471 7 118818894.067 7     96258.773          43.000  
  21855933.291 7 114853776.637 7     90683.745          47.000  
  23306353.355 7 122475833.516 7     90506.090          43.000  
  25091934.816 6 131859014.434 6     97082.326          37.000  
  21094624.364 7 110853079.224 7     90997.703          46.000  
  21654996.992 7 113797780.263 7     94527.978          46.000  
  20987346.741 7 110289325.513 7     95051.809          45.000  
  20506270.634 7 107761243.505 7     93322.697          46.000  
  24852043.633 6 130598391.758 6     95096.200          39.000  
  24294428.654 6 127668077.263 6     96190.622          39.000  
 14 01 11 12 21 22.0000000  0 10G01G04G10G11G13G17G20G23G31G32       0.008578928
  22611029.952 7 118821794.378 7     96258.773          43.000  
  21855423.310 7 114851101.670 7     90683.992          47.000  
  23305813.472 7 122472980.416 7     90505.957          43.000  
  25092645.325 6 131862738.181 6     97082.480          37.000  
  21094174.708 7 110850718.266 7     90998.052          46.000  
  21655219.895 7 113798949.627 7     94527.773          46.000  
  20987669.171 7 110291018.894 7     95052.240          45.000  
  20506264.407 7 107761207.786 7     93323.179          46.000  
  24852371.890 6 130600129.757 6     95096.877          39.000  
  24294967.557 6 127670909.218 6     96190.130          39.000  
 14 01 11 12 21 23.0000000  0 10G01G04G10G11G13G17G20G23G31G32       0.008638191
  22611581.714 7 118824694.906 7     96259.523          43.000  
  21854915.266 7 114848426.883 7     90684.495          47.000  
  23305269.982 7 122470127.355 7     90506.347          43.000  
  25093358.289 6 131866461.836 6     97081.566          37.000  
  21093724.357 7 110848357.657 7     90998.103          46.000  
  21655442.134 7 113800119.504 7     94528.994          46.000  
  20987991.627 7 110292712.412 7     95052.425          45.000  
  20506258.265 7 107761172.508 7     93323.641          46.000  
  24852705.548 6 130601868.143 6     95097.041          39.000  
  24295504.926 6 127673741.112 6     96190.694          39.000  
 14 01 11 12 21 24.0000000  0 10G01G04G10G11G13G17G20G23G31G32       0.008697453
  22612135.933 7 118827597.349 7     96259.502          43.000  
  21854406.070 7 114845754.036 7     90684.628          47.000  
  23304725.309 7 122467276.079 7     90506.080          44.000  
  25094064.353 6 131870187.226 6     97082.326          37.000  
  21093277.087 7 110845999.238 7     90999.643          46.000  
  21655665.563 7 113801291.628 7     94529.549          46.000  
  20988314.825 7 110294407.826 7     95052.979          45.000  
  20506251.783 7 107761139.442 7     93324.360          46.000  
  24853036.192 6 130603608.690 6     95097.657          39.000  
  24296042.030 6 127676574.611 6     96190.448          39.000  
 14 01 11 12 21 25.0000000  0 10G01G04G10G11G13G17G20G23G31G32       0.008756718
  22612686.277 7 118830495.422 7     96259.841          43.000  
  21853897.567 7 114843076.838 7     90684.998          47.000  
  23304182.442 7 122464420.291 7     90505.782          44.000  
  25094771.996 6 131873907.915 6     97082.357          37.000  
  21092827.873 7 110843636.602 7     90999.243          46.000  
  21655889.359 7 113802459.684 7     94529.969          46.000  
  20988636.231 7 110296098.829 7     95053.246          45.000  
  20506245.469 7 107761102.266 7     93324.904          46.000  
  24853363.580 6 130605345.122 6     95098.170          39.000  
  24296579.961 6 127679403.460 6     96190.222          39.000  
 14 01 11 12 21 26.0000000  0 10G01G04G10G11G13G17G20G23G31G32       0.008815982
  22613238.302 7 118833395.337 7     96260.375          43.000  
  21853389.033 7 114840401.471 7     90685.439          47.000  
  23303637.997 7 122461566.213 7     90506.737          44.000  
  25095480.512 6 131877630.193 6     97081.505          37.000  
  21092378.863 7 110841276.036 7     91000.413          46.000  
  21656112.998 7 113803629.914 7     94531.191          46.000  
  20988959.686 7 110297791.596 7     95053.287          45.000  
  20506239.174 7 107761067.184 7     93325.786          46.000  
  24853694.408 6 130607083.636 6     95099.340          39.000  
  24297121.231 6 127682233.853 6     96191.002          39.000  
 14 01 11 12 21 27.0000000  0 10G01G04G10G11G13G17G20G23G31G32       0.008875243
  22613792.998 7 118836300.284 7     96260.744          43.000  
  21852880.883 7 114837731.128 7     90685.470          47.000  
  23303095.623 7 122458717.018 7     90506.675          44.000  
  25096189.370 6 131881357.267 6     97082.942          37.000  
  21091930.655 7 110838920.689 7     91000.669          46.000  
  21656336.695 7 113804805.450 7     94531.335          46.000  
  20989280.287 7 110299489.365 7     95053.420          45.000  
  20506232.363 7 107761037.389 7     93326.033          46.000  
  24854030.035 6 130608827.372 6     95099.535          38.000  
  24297659.588 6 127685068.938 6     96190.407          39.000  
 14 01 11 12 21 28.0000000  0 10G01G04G10G11G13G17G20G23G31G32       0.008934505
  22614345.727 7 118839203.891 7     96260.518          43.000  
  21852372.300 7 114835059.503 7     90685.932          47.000  
  23302555.255 7 122455866.369 7     90506.706          44.000  
  25096899.447 6 131885082.748 6     97081.823          37.000  
  21091481.284 7 110836564.228 7     91001.039          46.000  
  21656559.254 7 113805980.008 7     94531.766          46.000  
  20989603.673 7 110301185.768 7     95053.513          45.000  
  20506225.926 7 107761006.561 7     93326.618          46.000  
  24854359.555 6 130610570.009 6     95099.710          39.000  
  24298199.546 6 127687902.439 6     96190.520          39.000  
 14 01 11 12 21 29.0000000  0 10G01G04G10G11G13G17G20G23G31G32       0.008993767
  22614898.124 7 118842107.760 7     96261.514          43.000  
  21851863.952 7 114832388.120 7     90686.352          47.000  
  23302010.337 7 122453015.804 7     90506.757          44.000  
  25097608.369 6 131888808.157 6     97082.223          37.000  
  21091032.951 7 110834208.220 7     91001.921          46.000  
  21656782.486 7 113807155.098 7     94532.648          46.000  
  20989926.523 7 110302882.358 7     95054.057          45.000  
  20506220.151 7 107760976.216 7     93327.531          46.000  
  24854688.793 6 130612313.163 6     95100.859          39.000  
  24298737.971 6 127690735.879 6     96190.848          39.000  
 14 01 11 12 21 30.0000000  0 10G01G04G10G11G13G17G20G23G31G32       0.009053029
  22615449.472 7 118845012.113 7     96261.463          43.000  
  21851355.331 7 114829717.298 7     90686.999          47.000  
  23301469.498 7 122450165.674 7     90507.907          44.000  
  25098315.074 6 131892533.916 6     97083.455          37.000  
  21090585.136 7 110831852.939 7     91002.240          46.000  
  21657006.449 7 113808331.035 7     94533.244          46.000  
  20990248.706 7 110304579.439 7     95054.159          45.000  
  20506215.098 7 107760946.665 7     93327.644          46.000  
  24855023.116 6 130614057.043 6     95101.372          38.000  
  24299280.429 6 127693569.513 6     96190.242          39.000  
 14 01 11 12 21 31.0000000  0 10G01G04G10G11G13G17G20G23G31G32       0.009112291
  22616002.576 7 118847916.692 7     96261.647          43.000  
  21850845.986 7 114827046.668 7     90686.927          47.000  
  23300927.902 7 122447315.567 7     90507.630          44.000  
  25099027.272 6 131896259.540 6     97082.839          37.000  
  21090136.637 7 110829498.060 7     91002.989          46.000  
  21657230.512 7 113809507.493 7     94533.767          46.000  
  20990572.250 7 110306276.673 7     95054.231          45.000  
  20506209.948 7 107760917.601 7     93328.198          46.000  
  24855352.956 6 130615801.367 6     95101.547          38.000  
  24299819.453 6 127696403.106 6     96190.674          39.000  
 14 01 11 12 21 32.0000000  0 10G01G04G10G11G13G17G20G23G31G32       0.009171554
  22616554.270 7 118850819.866 7     96261.812          43.000  
  21850338.473 7 114824374.670 7     90686.999          47.000  
  23300384.114 7 122444463.944 7     90507.404          44.000  
  25099735.169 6 131899983.566 6     97083.404          37.000  
  21089687.910 7 110827141.981 7     91003.389          46.000  
  21657453.229 7 113810682.875 7     94534.547          46.000  
  20990895.523 7 110307972.485 7     95055.001          45.000  
  20506204.393 7 107760887.410 7     93328.927          46.000  
  24855688.090 6 130617544.508 6     95102.183          38.000  
  24300357.199 6 127699234.978 6     96190.479          39.000  
 14 01 11 12 21 33.0000000  0 10G01G04G10G11G13G17G20G23G31G32       0.009230816
  22617108.040 7 118853724.944 7     96262.314          43.000  
  21849830.945 7 114821704.595 7     90687.584          47.000  
  23299843.133 7 122441614.067 7     90507.342          44.000  
  25100444.122 6 131903709.141 6     97082.018          37.000  
  21089239.966 7 110824788.019 7     91003.830          46.000  
  21657676.937 7 113811860.470 7     94535.132          46.000  
  20991217.815 7 110309670.144 7     95054.909          45.000  
  20506198.109 7 107760859.384 7     93329.666          46.000  
  24856019.443 6 130619289.781 6     95102.224          38.000  
  24300897.152 6 127702068.452 6     96190.386          39.000  
 14 01 11 12 21 34.0000000  0 10G01G04G10G11G13G17G20G23G31G32       0.009290079
  22617659.502 7 118856628.897 7     96262.663          43.000  
  21849322.821 7 114819033.382 7     90687.882          47.000  
  23299297.537 7 122438762.941 7     90507.886          44.000  
  25101150.163 6 131907433.406 6     97082.665          37.000  
  21088791.461 7 110822433.111 7     91004.231          46.000  
  21657902.203 7 113813037.254 7     94535.851          46.000  
  20991541.026 7 110311366.628 7     95055.216          45.000  
  20506193.754 7 107760830.499 7     93330.148          46.000  
  24856349.677 6 130621034.168 6     95102.891          38.000  
  24301436.836 6 127704900.513 6     96190.099          39.000  
 14 01 11 12 21 35.0000000  0 10G01G04G10G11G13G17G20G23G31G32       0.009349341
  22618212.832 7 118859534.666 7     96263.043          43.000  
  21848814.476 7 114816364.012 7     90688.210          47.000  
  23298755.879 7 122435913.509 7     90508.369          43.000  
  25101859.548 6 131911159.253 6     97082.942          37.000  
  21088344.487 7 110820080.246 7     91004.364          46.000  
  21658126.926 7 113814216.178 7     94536.425          46.000  
  20991864.013 7 110313064.933 7     95056.171          45.000  
  20506187.702 7 107760803.694 7     93330.579          46.000  
  24856683.159 6 130622780.632 6     95103.559          38.000  
  24301974.528 6 127707734.104 6     96190.479          39.000  
 14 01 11 12 21 36.0000000  0 10G01G04G10G11G13G17G20G23G31G32       0.009408602
  22618763.659 7 118862442.281 7     96263.156          43.000  
  21848306.484 7 114813696.496 7     90688.302          47.000  
  23298212.830 7 122433065.769 7     90508.482          43.000  
  25102572.469 6 131914886.678 6     97084.030          37.000  
  21087897.338 7 110817729.464 7     91005.483          46.000  
  21658351.488 7 113815397.259 7     94536.887          46.000  
  20992187.525 7 110314765.000 7     95055.699          45.000  
  20506183.196 7 107760779.017 7     93331.257          46.000  
  24857016.277 6 130624529.175 6     95103.969          38.000  
  24302514.989 6 127710569.246 6     96190.335          39.000  
 14 01 11 12 21 37.0000000  0 10G01G04G10G11G13G17G20G23G31G32       0.009467866
  22619317.434 7 118865345.389 7     96263.402          43.000  
  21847799.155 7 114811024.464 7     90688.364          47.000  
  23297672.128 7 122430213.358 7     90508.256          43.000  
  25103279.324 6 131918609.223 6     97082.264          37.000  
  21087449.171 7 110815374.328 7     91005.606          46.000  
  21658576.583 7 113816574.144 7     94537.462          46.000  
  20992510.170 7 110316460.516 7     95055.494          45.000  
  20506178.257 7 107760750.064 7     93331.411          46.000  
  24857345.913 6 130626273.425 6     95104.852          38.000  
  24303054.539 6 127713399.597 6     96190.776          39.000  
 14 01 11 12 21 38.0000000  0 10G01G04G10G11G13G17G20G23G31G32       0.009527127
  22619871.005 7 118868253.424 7     96263.639          43.000  
  21847291.245 7 114808357.380 7     90688.929          47.000  
  23297126.825 7 122427365.775 7     90508.348          43.000  
  25103986.710 6 131922336.563 6     97083.055          37.000  
  21087002.557 7 110813024.358 7     91006.088          46.000  
  21658800.012 7 113817756.273 7     94537.903          46.000  
  20992833.177 7 110318160.924 7     95055.884          45.000  
  20506173.743 7 107760726.342 7     93332.160          46.000  
  24857681.291 6 130628022.848 6     95105.026          38.000  
  24303594.392 6 127716234.545 6     96190.201          39.000  
 14 01 11 12 21 39.0000000  0 10G01G04G10G11G13G17G20G23G31G32       0.009586391
  22620423.351 7 118871157.023 7     96264.121          43.000  
  21846783.633 8 114805685.861 8     90689.349          48.000  
  23296587.310 7 122424513.605 7     90508.697          43.000  
  25104696.037 6 131926059.104 6     97080.643          37.000  
  21086553.801 7 110810670.127 7     91006.766          46.000  
  21659023.799 7 113818934.279 7     94538.642          46.000  
  20993156.852 7 110319856.851 7     95056.335          45.000  
  20506169.001 7 107760698.423 7     93332.796          46.000  
  24858012.820 6 130629768.047 6     95105.447          38.000  
  24304132.014 6 127719064.767 6     96190.335          39.000  
 14 01 11 12 21 40.0000000  0 10G01G04G10G11G13G17G20G23G31G32       0.009645652
  22620977.228 7 118874065.663 7     96264.419          43.000  
  21846274.891 8 114803019.403 8     90689.514          48.000  
  23296044.734 7 122421666.345 7     90509.139          43.000  
  25105405.723 6 131929786.529 6     97083.280          37.000  
  21086105.289 7 110808321.184 7     91007.310          46.000  
  21659250.511 7 113820117.661 7     94539.515          46.000  
  20993479.579 7 110321557.794 7     95056.735          45.000  
  20506163.942 7 107760675.834 7     93333.330          46.000  
  24858347.069 6 130631518.538 6     95106.484          38.000  
  24304670.741 6 127721899.796 6     96191.310          39.000  
 14 01 11 12 21 41.0000000  0 10G01G04G10G11G13G17G20G23G31G32       0.009704914
  22621528.762 7 118876972.997 7     96264.675          43.000  
  21845766.853 8 114800351.649 8     90690.006          48.000  
  23295501.878 7 122418817.618 7     90508.523          43.000  
  25106112.631 6 131933512.351 6     97083.157          37.000  
  21085657.891 7 110805971.088 7     91007.792          46.000  
  21659475.507 7 113821300.022 7     94539.946          46.000  
  20993804.138 7 110323257.363 7     95057.167          45.000  
  20506159.064 7 107760652.203 7     93333.792          46.000  
  24858678.068 6 130633267.945 6     95106.679          38.000  
  24305210.093 6 127724733.108 6     96190.253          39.000  
 14 01 11 12 21 42.0000000  0 10G01G04G10G11G13G17G20G23G31G32       0.009764176
  22622084.946 7 118879880.763 7     96265.250          42.000  
  21845260.039 8 114797684.319 8     90690.314          48.000  
  23294960.412 7 122415969.199 7     90508.964          43.000  
  25106822.802 6 131937238.326 6     97083.024          36.000  
  21085210.807 7 110803621.650 7     91008.131          46.000  
  21659699.502 7 113822483.120 7     94540.613          46.000  
  20994126.108 7 110324957.324 7     95057.095          45.000  
  20506155.268 7 107760629.253 7     93334.418          46.000  
  24859011.288 6 130635018.032 6     95108.095          38.000  
  24305749.672 6 127727566.616 6     96190.663          39.000  
 14 01 11 12 21 43.0000000  0 10G01G04G10G11G13G17G20G23G31G32       0.009823438
  22622636.013 7 118882788.641 7     96265.322          42.000  
  21844751.919 8 114795017.130 8     90690.242          48.000  
  23294417.991 7 122413120.757 7     90509.026          43.000  
  25107533.901 6 131940964.181 6     97083.188          36.000  
  21084764.741 7 110801272.553 7     91008.880          46.000  
  21659923.961 7 113823666.662 7     94541.188          46.000  
  20994450.756 7 110326657.362 7     95057.300          45.000  
  20506150.789 7 107760606.719 7     93334.870          46.000  
  24859344.005 6 130636768.470 6     95108.732          38.000  
  24306289.980 6 127730399.956 6     96190.622          39.000  
 14 01 11 12 21 44.0000000  0 10G01G04G10G11G13G17G20G23G31G32       0.009882702
  22623189.771 7 118885693.659 7     96265.353          42.000  
  21844245.161 8 114792347.099 8     90690.530          48.000  
  23293875.189 7 122410269.314 7     90508.872          43.000  
  25108246.303 6 131944686.878 6     97083.547          36.000  
  21084317.594 7 110798920.780 7     91008.767          46.000  
  21660148.697 7 113824847.656 7     94541.496          46.000  
  20994773.330 7 110328354.499 7     95057.351          45.000  
  20506146.577 7 107760581.583 7     93335.629          46.000  
  24859677.357 6 130638516.244 6     95108.537          38.000  
  24306827.211 6 127733230.125 6     96190.591          39.000  
 14 01 11 12 21 45.0000000  0 10G01G04G10G11G13G17G20G23G31G32       0.009941964
  22623742.677 7 118888602.196 7     96265.753          42.000  
  21843737.176 8 114789680.620 8     90691.053          48.000  
  23293334.369 7 122407421.283 7     90509.262          43.000  
  25108952.098 6 131948412.856 6     97082.182          37.000  
  21083870.400 7 110796572.761 7     91009.845          46.000  
  21660373.975 7 113826032.499 7     94542.204          46.000  
  20995097.519 7 110330055.124 7     95057.834          45.000  
  20506141.943 7 107760560.232 7     93336.112          46.000  
  24860012.377 6 130640267.787 6     95109.070          38.000  
  24307365.441 6 127736063.541 6     96190.838          39.000  
 14 01 11 12 21 46.0000000  0 10G01G04G10G11G13G17G20G23G31G32       0.010001225
  22624297.461 7 118891512.607 7     96266.081          42.000  
  21843229.167 8 114787016.018 8     90691.433          48.000  
  23292791.596 7 122404574.993 7     90510.011          43.000  
  25109662.959 6 131952140.457 6     97082.942          37.000  
  21083424.359 7 110794226.802 7     91010.379          46.000  
  21660599.097 7 113827219.524 7     94542.892          46.000  
  20995420.723 7 110331757.572 7     95058.059          45.000  
  20506137.147 7 107760541.025 7     93336.933          46.000  
  24860346.085 6 130642021.436 6     95109.378          38.000  
  24307905.867 6 127738898.496 6     96190.468          39.000  
 14 01 11 12 21 47.0000000  0 10G01G04G10G11G13G17G20G23G31G32       0.010060488
  22624849.802 7 118894420.178 7     96266.369          42.000  
  21842721.952 8 114784348.582 8     90691.700          48.000  
  23292249.772 7 122401725.688 7     90509.652          43.000  
  25110372.652 6 131955864.917 6     97083.013          37.000  
  21082977.440 7 110791878.224 7     91010.789          46.000  
  21660824.310 7 113828404.027 7     94543.743          46.000  
  20995743.758 7 110333457.133 7     95058.152          45.000  
  20506135.855 7 107760519.237 7     93337.446          46.000  
  24860679.488 6 130643772.479 6     95110.189          38.000  
  24308444.180 6 127741730.354 6     96190.530          39.000  
 14 01 11 12 21 48.0000000  0 10G01G04G10G11G13G17G20G23G31G32       0.010119749
  22625403.535 7 118897331.064 7     96266.420          42.000  
  21842214.992 8 114781684.492 8     90691.679          48.000  
  23291708.177 7 122398879.585 7     90509.354          43.000  
  25111079.889 6 131959592.470 6     97082.665          37.000  
  21082530.808 7 110789533.158 7     91010.974          46.000  
  21661049.452 7 113829592.154 7     94543.908          46.000  
  20996068.183 7 110335159.996 7     95058.634          45.000  
  20506131.251 7 107760501.044 7     93337.610          46.000  
  24861013.752 6 130645527.048 6     95110.240          39.000  
  24308981.925 6 127744565.218 6     96190.581          39.000  
 14 01 11 12 21 49.0000000  0 10G01G04G10G11G13G17G20G23G31G32       0.010179012
  22625958.243 7 118900239.076 7     96266.820          42.000  
  21841708.053 8 114779017.508 8     90692.233          48.000  
  23291166.387 7 122396030.462 7     90509.785          43.000  
  25111789.381 6 131963316.879 6     97082.387          36.000  
  21082082.334 7 110787185.409 7     91011.323          46.000  
  21661276.579 7 113830777.717 7     94544.647          46.000  
  20996391.666 7 110336859.913 7     95059.117          45.000  
  20506127.290 7 107760480.230 7     93338.144          46.000  
  24861346.369 6 130647278.967 6     95110.600          39.000  
  24309520.202 6 127747396.884 6     96190.037          39.000  
 14 01 11 12 21 50.0000000  0 10G01G04G10G11G13G17G20G23G31G32       0.010238273
  22626510.553 7 118903150.482 7     96267.077          42.000  
  21841201.384 8 114776353.943 8     90692.151          48.000  
  23290625.790 7 122393184.605 7     90509.652          43.000  
  25112500.420 6 131967044.412 6     97082.264          36.000  
  21081636.831 7 110784841.277 7     91012.452          46.000  
  21661504.411 7 113831966.984 7     94545.180          46.000  
  20996715.597 7 110338563.179 7     95058.696          45.000  
  20506122.698 7 107760463.097 7     93338.801          46.000  
  24861679.881 6 130649034.580 6     95112.057          39.000  
  24310058.311 6 127750231.669 6     96190.068          39.000  
 14 01 11 12 21 51.0000000  0 10G01G04G10G11G13G17G20G23G31G32       0.010297536
  22627063.861 7 118906059.137 7     96267.282          42.000  
  21840693.817 8 114773687.665 8     90692.757          48.000  
  23290081.790 7 122390335.866 7     90510.042          43.000  
  25113207.083 6 131970768.951 6     97082.603          36.000  
  21081190.846 7 110782494.608 7     91012.647          46.000  
  21661731.403 7 113833153.833 7     94545.858          46.000  
  20997039.190 7 110340263.675 7     95059.537          45.000  
  20506118.965 7 107760443.479 7     93339.314          46.000  
  24862014.420 6 130650787.599 6     95111.636          39.000  
  24310599.269 6 127753063.421 6     96190.160          39.000  
 14 01 11 12 21 52.0000000  0 10G01G04G10G11G13G17G20G23G31G32       0.010356799
  22627618.562 7 118908968.113 7     96267.970          42.000  
  21840186.687 8 114771021.676 8     90693.260          48.000  
  23289541.627 7 122387487.291 7     90510.298          43.000  
  25113912.428 6 131974493.566 6     97083.763          36.000  
  21080744.573 7 110780148.429 7     91012.596          46.000  
  21661954.513 7 113834341.285 7     94546.340          46.000  
  20997362.257 7 110341964.402 7     95059.732          45.000  
  20506115.148 7 107760424.422 7     93340.063          46.000  
  24862346.216 6 130652541.197 6     95112.642          39.000  
  24311140.420 6 127755895.187 6     96190.479          39.000  
 14 01 11 12 21 53.0000000  0 10G01G04G10G11G13G17G20G23G31G32       0.010416059
  22628172.682 7 118911882.031 7     96268.124          42.000  
  21839679.935 8 114768360.676 8     90693.270          48.000  
  23288998.768 7 122384643.545 7     90510.114          44.000  
  25114623.224 6 131978222.824 6     97082.685          36.000  
  21080299.478 7 110777807.440 7     91013.694          46.000  
  21662181.485 7 113835534.029 7     94546.874          46.000  
  20997686.266 7 110343670.083 7     95060.102          45.000  
  20506112.330 7 107760410.615 7     93340.597          46.000  
  24862682.042 6 130654299.974 6     95112.847          39.000  
  24311677.892 6 127758731.623 6     96190.253          39.000  
 14 01 11 12 21 54.0000000  0 10G01G04G10G11G13G17G20G23G31G32       0.010475323
  22628727.774 7 118914790.061 7     96268.247          42.000  
  21839172.256 8 114765693.804 8     90693.896          48.000  
  23288456.672 7 122381793.814 7     90510.791          44.000  
  25115334.759 6 131981945.963 6     97083.640          36.000  
  21079851.782 7 110775460.780 7     91014.002          46.000  
  21662406.635 7 113836721.201 7     94547.674          46.000  
  20998009.145 7 110345369.821 7     95060.133          45.000  
  20506109.394 7 107760391.185 7     93341.192          46.000  
  24863018.130 6 130656053.131 6     95113.874          39.000  
  24312217.422 6 127761561.874 6     96190.520          39.000  
 14 01 11 12 21 55.0000000  0 10G01G04G10G11G13G17G20G23G31G32       0.010534584
  22629281.726 7 118917703.099 7     96269.006          42.000  
  21838665.527 8 114763031.925 8     90694.153          48.000  
  23287914.540 7 122378948.892 7     90510.822          44.000  
  25116041.103 6 131985673.828 6     97083.496          36.000  
  21079405.259 7 110773119.285 7     91014.299          46.000  
  21662633.936 7 113837913.677 7     94548.229          46.000  
  20998335.247 7 110347074.501 7     95060.379          45.000  
  20506107.647 7 107760377.003 7     93341.829          46.000  
  24863349.115 6 130657811.467 6     95114.182          39.000  
  24312754.800 6 127764396.811 6     96190.509          39.000  
 14 01 11 12 21 56.0000000  0 10G01G04G10G11G13G17G20G23G31G32       0.010593847
  22629835.305 7 118920613.175 7     96268.965          42.000  
  21838158.241 8 114760367.123 8     90694.409          48.000  
  23287373.539 7 122376100.909 7     90511.007          44.000  
  25116750.839 6 131989398.513 6     97082.634          36.000  
  21078961.073 7 110770775.075 7     91015.100          46.000  
  21662860.167 7 113839103.528 7     94548.855          46.000  
  20998658.690 7 110348776.206 7     95060.595          45.000  
  20506104.058 7 107760360.146 7     93342.229          46.000  
  24863685.862 6 130659567.083 6     95114.212          39.000  
  24313294.227 6 127767228.523 6     96190.253          39.000  
 14 01 11 12 21 57.0000000  0 10G01G04G10G11G13G17G20G23G31G32       0.010653109
  22630388.134 7 118923525.312 7     96269.489          42.000  
  21837651.541 8 114757704.394 8     90694.758          48.000  
  23286832.902 7 122373254.846 7     90511.448          44.000  
  25117462.240 6 131993124.953 6     97083.640          36.000  
  21078514.654 7 110768433.127 7     91015.767          46.000  
  21663087.801 7 113840295.751 7     94549.902          46.000  
  20998983.469 7 110350479.931 7     95061.149          45.000  
  20506099.772 7 107760345.621 7     93343.204          46.000  
  24864020.388 6 130661325.027 6     95114.962          39.000  
  24313832.089 6 127770062.003 6     96190.940          39.000  
 14 01 11 12 21 58.0000000  0 10G01G04G10G11G13G17G20G23G31G32       0.010712372
  22630943.371 7 118926436.102 7     96269.376          42.000  
  21837144.779 8 114755040.340 8     90695.035          48.000  
  23286291.415 7 122370407.310 7     90511.571          44.000  
  25118165.921 6 131996849.823 6     97083.876          36.000  
  21078069.159 7 110766090.033 7     91016.557          46.000  
  21663314.477 7 113841486.942 7     94550.230          46.000  
  20999307.223 7 110352182.268 7     95061.282          45.000  
  20506097.944 7 107760330.017 7     93343.543          46.000  
  24864353.560 6 130663081.859 6     95115.639          39.000  
  24314371.349 6 127772893.834 6     96190.530          39.000  
 14 01 11 12 21 59.0000000  0 10G01G04G10G11G13G17G20G23G31G32       0.010771635
  22631498.111 7 118929347.281 7     96270.125          42.000  
  21836638.280 8 114752376.672 8     90695.343          48.000  
  23285749.597 7 122367560.038 7     90511.858          44.000  
  25118873.238 6 132000574.798 6     97083.383          36.000  
  21077623.015 7 110763747.533 7     91016.773          46.000  
  21663540.713 7 113842678.823 7     94550.846          46.000  
  20999633.323 7 110353884.936 7     95061.631          45.000  
  20506094.908 7 107760315.058 7     93343.892          46.000  
  24864685.887 6 130664839.248 6     95115.844          39.000  
  24314910.430 6 127775725.725 6     96190.479          39.000  
 14 01 11 12 21 60.0000000  0 10G01G04G10G11G13G17G20G23G31G32       0.010830899
  22632050.294 7 118932257.020 7     96270.310          42.000  
  21836131.892 8 114749711.583 8     90695.692          48.000  
  23285207.097 7 122364711.179 7     90512.033          44.000  
  25119588.597 6 132004298.036 6     97082.552          36.000  
  21077179.684 7 110761403.811 7     91017.276          46.000  
  21663768.639 7 113843869.582 7     94551.328          46.000  
  20999955.525 7 110355586.119 7     95061.385          45.000  
  20506091.840 7 107760298.939 7     93344.692          46.000  
  24865021.609 6 130666595.482 6     95117.138          39.000  
  24315451.661 6 127778555.915 6     96190.817          39.000  
 14 01 11 12 22  1.0000000  0 10G01G04G10G11G13G17G20G23G31G32       0.010890160
  22632605.906 7 118935171.779 7     96270.628          42.000  
  21835624.557 8 114747051.524 8     90695.795          48.000  
  23284666.665 7 122361867.194 7     90511.787          44.000  
  25120298.404 6 132008026.097 6     97083.516          36.000  
  21076733.729 7 110759065.302 7     91017.892          46.000  
  21663995.297 7 113845065.676 7     94551.749          46.000  
  21000281.153 7 110357292.305 7     95061.857          45.000  
  20506090.157 7 107760288.095 7     93344.938          46.000  
  24865355.281 6 130668356.940 6     95116.830          39.000  
  24315989.979 6 127781390.792 6     96190.417          39.000  
 14 01 11 12 22  2.0000000  0 10G01G04G10G11G13G17G20G23G31G32       0.010949423
  22633158.313 7 118938083.699 7     96270.608          42.000  
  21835118.018 8 114744388.640 8     90696.226          48.000  
  23284124.907 7 122359020.232 7     90511.869          44.000  
  25121002.288 6 132011751.028 6     97083.065          36.000  
  21076287.847 7 110756724.174 7     91018.384          46.000  
  21664222.238 7 113846259.258 7     94552.580          46.000  
  21000605.276 7 110358995.585 7     95061.683          45.000  
  20506088.179 7 107760274.701 7     93345.544          46.000  
  24865691.505 6 130670115.808 6     95118.195          39.000  
  24316529.986 6 127784222.552 6     96190.253          39.000  
 14 01 11 12 22  3.0000000  0 10G01G04G10G11G13G17G20G23G31G32       0.011008684
  22633713.053 7 118940998.876 7     96270.628          42.000  
  21834611.337 8 114741729.016 8     90696.195          48.000  
  23283584.125 7 122356176.407 7     90512.146          44.000  
  25121712.074 6 132015478.982 6     97082.911          36.000  
  21075843.192 7 110754386.501 7     91018.343          46.000  
  21664450.238 7 113847456.409 7     94553.258          46.000  
  21000929.443 7 110360702.091 7     95062.042          45.000  
  20506085.725 7 107760264.804 7     93345.749          46.000  
  24866025.730 6 130671878.173 6     95118.338          39.000  
  24317068.850 6 127787057.299 6     96190.376          39.000  
 14 01 11 12 22  4.0000000  0 10G01G04G10G11G13G17G20G23G31G32       0.011067947
  22634268.200 7 118943911.194 7     96271.111          42.000  
  21834104.119 8 114739066.568 8     90696.575          48.000  
  23283042.204 7 122353329.591 7     90512.228          44.000  
  25122427.729 6 132019203.776 6     97083.147          36.000  
  21075397.845 7 110752046.187 7     91018.600          46.000  
  21664676.992 7 113848651.009 7     94553.638          46.000  
  21001253.441 7 110362405.715 7     95062.678          45.000  
  20506084.308 7 107760252.359 7     93346.827          46.000  
  24866361.737 6 130673637.900 6     95118.852          39.000  
  24317606.922 6 127789888.886 6     96190.571          39.000  
 14 01 11 12 22  5.0000000  0 10G01G04G10G11G13G17G20G23G31G32       0.011127211
  22634823.680 7 118946822.262 7     96271.152          42.000  
  21833597.237 8 114736402.881 8     90696.832          48.000  
  23282500.776 7 122350481.370 7     90512.382          44.000  
  25123133.203 6 132022927.064 6     97083.783          36.000  
  21074952.112 7 110749704.840 7     91019.113          46.000  
  21664904.900 7 113849844.673 7     94554.243          46.000  
  21001577.762 7 110364108.032 7     95062.524          45.000  
  20506081.174 7 107760238.889 7     93346.919          46.000  
  24866698.309 6 130675396.598 6     95119.344          39.000  
  24318146.409 6 127792718.911 6     96190.027          39.000  
 14 01 11 12 22  6.0000000  0 10G01G04G10G11G13G17G20G23G31G32       0.011186473
  22635378.091 7 118949736.709 7     96271.634          42.000  
  21833092.333 8 114733742.594 8     90697.222          48.000  
  23281958.259 7 122347636.422 7     90512.741          44.000  
  25123839.271 6 132026653.474 6     97082.757          36.000  
  21074507.438 7 110747367.063 7     91019.749          46.000  
  21665133.512 7 113851042.039 7     94554.736          46.000  
  21001902.336 7 110365813.681 7     95062.812          45.000  
  20506078.550 7 107760229.100 7     93347.977          46.000  
  24867034.237 6 130677158.915 6     95119.252          39.000  
  24318685.341 6 127795552.016 6     96189.863          39.000  
 14 01 11 12 22  7.0000000  0 10G01G04G10G11G13G17G20G23G31G32       0.011245733
  22635933.521 7 118952654.516 7     96271.993          42.000  
  21832585.786 8 114731085.671 8     90697.376          48.000  
  23281416.537 7 122344794.653 7     90512.505          44.000  
  25124552.027 6 132030383.033 6     97083.752          36.000  
  21074062.113 7 110745032.863 7     91020.837          46.000  
  21665362.062 7 113852243.073 7     94555.413          46.000  
  21002227.734 7 110367522.656 7     95063.191          45.000  
  20506077.941 7 107760222.900 7     93348.069          46.000  
  24867369.516 6 130678924.817 6     95120.155          40.000  
  24319222.006 6 127798388.211 6     96189.955          39.000  
 14 01 11 12 22  8.0000000  0 10G01G04G10G11G13G17G20G23G31G32       0.011304996
  22636487.727 7 118955567.886 7     96271.891          42.000  
  21832079.734 8 114728424.352 8     90697.622          48.000  
  23280875.479 7 122341948.376 7     90512.690          44.000  
  25125261.026 6 132034107.849 6     97082.921          36.000  
  21073617.316 7 110742694.444 7     91020.550          46.000  
  21665590.591 7 113853440.001 7     94555.865          46.000  
  21002551.331 7 110369227.169 7     95063.150          45.000  
  20506076.167 7 107760212.577 7     93348.551          46.000  
  24867704.573 6 130680686.551 6     95120.442          40.000  
  24319762.533 6 127801219.697 6     96189.770          39.000  
 14 01 11 12 22  9.0000000  0 10G01G04G10G11G13G17G20G23G31G32       0.011364258
  22637043.047 7 118958483.114 7     96272.465          42.000  
  21831574.036 8 114725764.892 8     90697.971          48.000  
  23280332.076 7 122339103.770 7     90512.526          44.000  
  25125968.801 6 132037834.234 6     97083.003          36.000  
  21073173.672 7 110740358.075 7     91021.535          46.000  
  21665818.959 7 113854639.086 7     94556.645          46.000  
  21002875.839 7 110370933.470 7     95063.386          45.000  
  20506074.222 7 107760204.353 7     93349.239          46.000  
  24868040.019 6 130682450.331 6     95121.366          40.000  
  24320302.019 6 127804052.719 6     96190.181          39.000  
 14 01 11 12 22 10.0000000  0 10G01G04G10G11G13G17G20G23G31G32       0.011423518
  22637595.792 7 118961401.806 7     96272.681          42.000  
  21831067.669 8 114723108.915 8     90698.320          48.000  
  23279792.354 7 122336262.516 7     90512.608          44.000  
  25126677.391 6 132041563.899 6     97083.814          36.000  
  21072728.827 7 110738025.399 7     91022.120          46.000  
  21666048.048 7 113855841.956 7     94557.487          46.000  
  21003201.002 7 110372643.217 7     95063.725          45.000  
  20506073.938 7 107760199.860 7     93349.865          46.000  
  24868375.409 6 130684217.819 6     95121.982          40.000  
  24320841.347 6 127806888.904 6     96190.232          39.000  
 14 01 11 12 22 11.0000000  0 10G01G04G10G11G13G17G20G23G31G32       0.011482782
  22638151.380 7 118964314.443 7     96273.020          42.000  
  21830560.916 8 114720446.907 8     90698.576          48.000  
  23279250.319 7 122333415.100 7     90513.316          43.000  
  25127388.955 6 132045287.191 6     97083.280          36.000  
  21072284.199 7 110735686.863 7     91022.110          46.000  
  21666276.233 7 113857039.075 7     94557.620          46.000  
  21003526.525 7 110374346.847 7     95063.838          45.000  
  20506070.653 7 107760189.601 7     93350.327          45.000  
  24868710.832 6 130685979.477 6     95121.715          39.000  
  24321380.606 6 127809718.729 6     96189.945          39.000  
 14 01 11 12 22 12.0000000  0 10G01G04G10G11G13G17G20G23G31G32       0.011542044
  22638704.765 7 118967230.503 7     96273.153          42.000  
  21830055.576 8 114717788.330 8     90699.018          48.000  
  23278709.664 7 122330570.940 7     90513.254          43.000  
  25128098.456 6 132049013.644 6     97082.880          36.000  
  21071841.027 7 110733351.978 7     91022.880          46.000  
  21666504.179 7 113858239.939 7     94558.226          46.000  
  21003850.027 7 110376053.866 7     95063.715          45.000  
  20506070.733 7 107760183.018 7     93350.984          45.000  
  24869047.144 6 130687744.811 6     95122.680          39.000  
  24321920.275 6 127812551.710 6     96190.222          39.000  
 14 01 11 12 22 13.0000000  0 10G01G04G10G11G13G17G20G23G31G32       0.011601304
  22639260.515 7 118970149.986 7     96273.512          42.000  
  21829550.887 8 114715133.172 8     90698.741          48.000  
  23278167.351 7 122327730.063 7     90512.751          43.000  
  25128806.280 6 132052743.287 6     97083.208          36.000  
  21071396.257 7 110731020.696 7     91022.972          46.000  
  21666733.402 7 113859444.518 7     94558.492          46.000  
  21004175.315 7 110377764.263 7     95064.587          45.000  
  20506069.230 7 107760180.121 7     93351.425          45.000  
  24869384.149 6 130689513.785 6     95123.142          39.000  
  24322458.440 6 127815387.783 6     96189.616          39.000  
 14 01 11 12 22 14.0000000  0 10G01G04G10G11G13G17G20G23G31G32       0.011660565
  22639813.721 7 118973068.101 7     96273.974          42.000  
  21829043.663 8 114712476.689 8     90699.634          48.000  
  23277627.040 7 122324887.711 7     90513.737          43.000  
  25129516.079 6 132056471.303 6     97084.173          37.000  
  21070951.839 7 110728688.265 7     91023.557          46.000  
  21666962.809 7 113860648.055 7     94559.478          46.000  
  21004500.521 7 110379473.235 7     95064.875          45.000  
  20506069.037 7 107760176.107 7     93352.031          45.000  
  24869719.037 6 130691281.629 6     95124.035          39.000  
  24323000.288 6 127818222.214 6     96190.232          39.000  
 14 01 11 12 22 15.0000000  0 10G01G04G10G11G13G17G20G23G31G32       0.011719828
  22640369.999 7 118975983.365 7     96273.820          42.000  
  21828538.563 8 114709817.371 8     90699.757          48.000  
  23277084.252 7 122322042.343 7     90513.316          43.000  
  25130225.853 6 132060196.191 6     97083.414          37.000  
  21070508.824 7 110726353.206 7     91024.009          46.000  
  21667189.641 7 113861849.066 7     94559.868          46.000  
  21004826.133 7 110381179.338 7     95064.823          45.000  
  20506066.836 7 107760169.540 7     93352.523          45.000  
  24870053.804 6 130693046.844 6     95124.055          39.000  
  24323539.821 6 127821053.480 6     96189.308          39.000  
 14 01 11 12 22 15.9999998  0 10G01G04G10G11G13G17G20G23G31G32       0.011779090
  22640925.499 7 118978900.537 7     96274.159          42.000  
  21828032.685 8 114707159.963 8     90699.983          48.000  
  23276543.903 7 122319198.791 7     90513.798          43.000  
  25130934.030 6 132063922.689 6     97083.352          37.000  
  21070063.357 7 110724020.263 7     91024.820          46.000  
  21667418.986 7 113863052.286 7     94560.401          46.000  
  21005150.002 7 110382887.278 7     95064.731          45.000  
  20506066.566 7 107760165.124 7     93352.842          45.000  
  24870392.030 6 130694814.236 6     95125.092          39.000  
  24324077.770 6 127823886.420 6     96190.089          39.000  
 14 01 11 12 22 17.0000000  0 10G01G04G10G11G13G17G20G23G31G32       0.011838352
  22641481.238 7 118981817.963 7     96274.415          42.000  
  21827527.813 8 114704502.844 8     90700.383          48.000  
  23276002.241 7 122316355.336 7     90514.168          43.000  
  25131640.312 6 132067649.223 6     97082.685          37.000  
  21069619.692 7 110721687.786 7     91025.066          46.000  
  21667648.634 7 113864256.094 7     94561.387          46.000  
  21005476.202 7 110384595.473 7     95065.398          45.000  
  20506065.260 7 107760161.258 7     93353.416          45.000  
  24870728.816 6 130696582.054 6     95125.112          39.000  
  24324617.034 6 127826719.272 6     96189.606          39.000  
 14 01 11 12 22 17.9999998  0 10G01G04G10G11G13G17G20G23G31G32       0.011897614
  22642037.416 7 118984735.702 7     96274.908          42.000  
  21827020.906 8 114701846.029 8     90700.352          48.000  
  23275460.608 7 122313512.037 7     90513.942          43.000  
  25132353.260 6 132071375.794 6     97082.808          37.000  
  21069175.935 7 110719355.829 7     91025.456          46.000  
  21667878.590 7 113865460.520 7     94562.003          46.000  
  21005799.977 7 110386303.922 7     95065.798          45.000  
  20506064.825 7 107760157.971 7     93354.155          45.000  
  24871065.711 6 130698350.452 6     95125.769          39.000  
  24325155.541 6 127829552.148 6     96190.160          39.000  
 14 01 11 12 22 19.0000000  0 10G01G04G10G11G13G17G20G23G31G32       0.011956875
  22642592.205 7 118987655.138 7     96274.980          42.000  
  21826515.851 8 114699190.950 8     90700.937          48.000  
  23274921.182 7 122310670.332 7     90513.911          43.000  
  25133061.541 6 132075103.832 6     97083.404          37.000  
  21068732.730 7 110717025.770 7     91026.113          46.000  
  21668107.974 7 113866666.942 7     94562.054          46.000  
  21006125.965 7 110388014.001 7     95065.388          45.000  
  20506064.762 7 107760156.641 7     93354.545          45.000  
  24871399.931 6 130700120.787 6     95126.344          38.000  
  24325693.744 6 127832386.423 6     96189.914          39.000  
 14 01 11 12 22 19.9999998  0 10G01G04G10G11G13G17G20G23G31G32       0.012016138
  22643147.259 7 118990571.964 7     96275.503          42.000  
  21826010.495 8 114696533.285 8     90701.296          48.000  
  23274380.665 7 122307825.895 7     90514.537          43.000  
  25133769.271 6 132078828.978 6     97083.332          37.000  
  21068288.313 7 110714693.341 7     91026.698          46.000  
  21668337.119 7 113867871.105 7     94563.039          46.000  
  21006450.885 7 110389721.465 7     95066.014          45.000  
  20506064.449 7 107760152.995 7     93355.469          45.000  
  24871737.499 6 130701888.722 6     95126.837          38.000  
  24326232.350 6 127835217.816 6     96190.171          39.000  
 14 01 11 12 22 21.0000000  0 10G01G04G10G11G13G17G20G23G31G32       0.012075401
  22643704.087 7 118993489.117 7     96275.709          42.000  
  21825505.203 8 114693875.960 8     90701.522          48.000  
  23273839.037 7 122304981.622 7     90514.722          43.000  
  25134477.970 6 132082554.217 6     97082.829          37.000  
  21067844.186 7 110712361.437 7     91027.653          46.000  
  21668566.762 7 113869075.887 7     94563.737          46.000  
  21006775.858 7 110391429.208 7     95066.219          45.000  
  20506063.484 7 107760149.927 7     93356.075          45.000  
  24872074.415 6 130703657.225 6     95127.052          38.000  
  24326772.860 6 127838049.216 6     96189.822          39.000  
 14 01 11 12 22 21.9999998  0 10G01G04G10G11G13G17G20G23G31G32       0.012134664
  22644256.610 7 118996406.642 7     96276.109          42.000  
  21824999.989 8 114691219.039 8     90701.994          48.000  
  23273299.363 7 122302137.615 7     90515.235          43.000  
  25135188.974 6 132086279.569 6     97084.101          37.000  
  21067400.171 7 110710030.124 7     91027.499          46.000  
  21668797.300 7 113870281.374 7     94564.322          46.000  
  21007101.276 7 110393137.292 7     95066.743          45.000  
  20506063.022 7 107760147.496 7     93356.403          45.000  
  24872413.163 6 130705426.358 6     95128.089          38.000  
  24327310.730 6 127840880.741 6     96190.273          39.000  
 14 01 11 12 22 23.0000000  0 10G01G04G10G11G13G17G20G23G31G32       0.012193926
  22644813.668 7 118999326.000 7     96276.550          42.000  
  21824495.121 8 114688563.941 8     90702.343          48.000  
  23272760.006 7 122299295.274 7     90514.999          43.000  
  25135898.931 6 132090006.421 6     97083.917          37.000  
  21066958.063 7 110707700.829 7     91028.217          45.000  
  21669026.338 7 113871488.975 7     94565.020          46.000  
  21007426.650 7 110394847.143 7     95067.338          45.000  
  20506062.196 7 107760147.156 7     93356.926          45.000  
  24872749.255 6 130707197.533 6     95128.561          38.000  
  24327848.882 6 127843713.747 6     96190.037          38.000  
 14 01 11 12 22 24.0000000  0 10G01G04G10G11G13G17G20G23G31G32       0.012253187
  22645369.951 7 119002247.288 7     96277.022          42.000  
  21823989.674 8 114685910.799 8     90702.969          48.000  
  23272217.186 7 122296454.739 7     90515.256          43.000  
  25136608.455 6 132093734.993 6     97084.409          37.000  
  21066514.841 7 110705373.684 7     91029.161          45.000  
  21669256.377 7 113872698.840 7     94565.954          46.000  
  21007752.194 7 110396558.892 7     95067.276          45.000  
  20506064.072 7 107760149.014 7     93357.799          45.000  
  24873084.426 6 130708970.869 6     95129.033          38.000  
  24328386.395 6 127846548.398 6     96189.986          38.000  
 14 01 11 12 22 25.0000000  0 10G01G04G10G11G13G17G20G23G31G32       0.012312449
  22645925.415 7 119005167.274 7     96276.889          42.000  
  21823484.552 8 114683256.365 8     90703.041          48.000  
  23271675.430 7 122293612.792 7     90515.502          43.000  
  25137316.348 6 132097461.996 6     97083.465          37.000  
  21066071.984 7 110703045.452 7     91029.787          45.000  
  21669486.419 7 113873907.721 7     94566.334          46.000  
  21008077.865 7 110398269.305 7     95067.287          45.000  
  20506063.662 7 107760149.860 7     93358.404          45.000  
  24873425.303 6 130710743.193 6     95129.464          38.000  
  24328926.464 6 127849381.482 6     96190.119          38.000  
 14 01 11 12 22 26.0000000  0 10G01G04G10G11G13G17G20G23G31G32       0.012371710
  22646479.711 7 119008089.118 7     96277.084          42.000  
  21822979.977 8 114680603.806 8     90703.349          48.000  
  23271135.327 7 122290772.528 7     90515.092          43.000  
  25138026.263 6 132101190.623 6     97083.691          37.000  
  21065629.520 7 110700719.291 7     91029.880          45.000  
  21669716.493 7 113875118.767 7     94566.868          46.000  
  21008403.503 7 110399981.544 7     95067.985          45.000  
  20506063.846 7 107760152.826 7     93358.938          45.000  
  24873762.005 6 130712517.572 6     95130.285          38.000  
  24329465.306 6 127852216.116 6     96189.894          38.000  
 14 01 11 12 22 27.0000000  0 10G01G04G10G11G13G17G20G23G31G32       0.012430974
  22647034.908 7 119011006.695 7     96277.844          42.000  
  21822475.350 8 114677946.973 8     90703.565          48.000  
  23270595.155 7 122287927.908 7     90515.707          43.000  
  25138736.253 6 132104914.646 6     97083.681          37.000  
  21065186.281 7 110698389.053 7     91030.455          45.000  
  21669945.434 7 113876325.858 7     94567.637          46.000  
  21008728.504 7 110401689.431 7     95068.036          45.000  
  20506063.262 7 107760151.757 7     93359.380          45.000  
  24874100.222 6 130714287.915 6     95130.593          38.000  
  24330006.135 6 127855046.190 6     96190.160          38.000  
 14 01 11 12 22 28.0000000  0 10G01G04G10G11G13G17G20G23G31G32       0.012490235
  22647592.162 7 119013929.088 7     96278.080          42.000  
  21821969.366 8 114675295.009 8     90703.965          48.000  
  23270053.021 7 122285087.972 7     90516.672          43.000  
  25139442.173 6 132108643.278 6     97083.486          37.000  
  21064744.383 7 110696063.864 7     91030.999          45.000  
  21670175.923 7 113877538.084 7     94567.956          46.000  
  21009054.990 7 110403402.128 7     95068.436          45.000  
  20506064.793 7 107760155.806 7     93360.160          45.000  
  24874437.499 6 130716063.319 6     95131.291          38.000  
  24330544.595 6 127857880.818 6     96190.540          38.000  
 14 01 11 12 22 29.0000000  0 10G01G04G10G11G13G17G20G23G31G32       0.012549498
  22648146.447 7 119016848.874 7     96278.931          42.000  
  21821463.076 8 114672640.434 8     90704.683          48.000  
  23269512.641 7 122282245.256 7     90516.303          43.000  
  25140153.641 6 132112369.068 6     97084.266          37.000  
  21064301.457 7 110693736.275 7     91031.686          45.000  
  21670406.546 7 113878748.017 7     94568.992          46.000  
  21009380.016 7 110405112.153 7     95068.457          45.000  
  20506065.686 7 107760157.498 7     93360.827          45.000  
  24874774.509 6 130717836.318 6     95131.897          37.000  
  24331084.775 6 127860712.479 6     96190.284          38.000  
 14 01 11 12 22 30.0000000  0 10G01G04G10G11G13G17G20G23G31G32       0.012608760
  22648704.887 7 119019770.499 7     96278.973          42.000  
  21820959.043 8 114669987.724 8     90704.961          48.000  
  23268971.454 7 122279404.298 7     90517.103          43.000  
  25140863.317 6 132116096.442 6     97084.994          37.000  
  21063858.161 7 110691410.737 7     91032.107          45.000  
  21670637.390 7 113879960.114 7     94569.813          46.000  
  21009705.581 7 110406824.009 7     95069.124          45.000  
  20506065.461 7 107760161.316 7     93361.340          45.000  
  24875113.437 6 130719611.398 6     95132.297          37.000  
  24331623.922 6 127863545.716 6     96190.396          38.000  
 14 01 11 12 22 31.0000000  0 10G01G04G10G11G13G17G20G23G31G32       0.012668022
  22649261.515 7 119022692.595 7     96279.168          42.000  
  21820455.296 8 114667335.517 8     90705.340          48.000  
  23268431.088 7 122276563.655 7     90516.724          43.000  
  25141572.642 6 132119823.972 6     97084.912          37.000  
  21063415.186 7 110689085.888 7     91032.723          46.000  
  21670868.384 7 113881172.993 7     94570.511          46.000  
  21010031.227 7 110408536.291 7     95069.740          45.000  
  20506067.281 7 107760165.880 7     93361.976          45.000  
  24875445.855 6 130721387.262 6     95133.878          37.000  
  24332161.962 6 127866379.137 6     96190.407          38.000  
 14 01 11 12 22 31.9999999  0 10G01G04G10G11G13G17G20G23G31G32       0.012727285
  22649817.529 7 119025613.469 7     96279.640          43.000  
  21819949.799 8 114664682.113 8     90705.576          48.000  
  23267891.985 7 122273721.655 7     90516.836          43.000  
  25142278.836 6 132123550.043 6     97083.896          37.000  
  21062972.016 7 110686760.015 7     91033.215          46.000  
  21671097.680 7 113882384.951 7     94570.799          46.000  
  21010357.202 7 110410247.300 7     95069.740          45.000  
  20506067.015 7 107760169.483 7     93362.777          45.000  
  24875780.157 6 130723162.029 6     95133.539          37.000  
  24332701.812 6 127869211.069 6     96190.581          38.000  
 14 01 11 12 22 32.9999999  0 10G01G04G10G11G13G17G20G23G31G32       0.012786548
  22650373.211 7 119028534.598 7     96279.948          43.000  
  21819444.920 8 114662028.956 8     90705.936          48.000  
  23267349.861 7 122270879.769 7     90517.093          43.000  
  25142988.648 6 132127276.133 6     97084.543          37.000  
  21062530.267 7 110684434.606 7     91034.026          46.000  
  21671328.987 7 113883597.480 7     94571.527          46.000  
  21010682.074 7 110411958.514 7     95070.232          45.000  
  20506067.416 7 107760173.587 7     93363.054          45.000  
  24876119.309 6 130724937.288 6     95134.052          37.000  
  24333240.884 6 127872042.908 6     96190.386          38.000  
 14 01 11 12 22 34.0000000  0 10G01G04G10G11G13G17G20G23G31G32       0.012845808
  22650931.185 7 119031460.770 7     96280.307          43.000  
  21818942.341 8 114659380.886 8     90706.100          48.000  
  23266807.344 7 122268042.825 7     90517.319          43.000  
  25143701.647 6 132131006.968 6     97083.537          37.000  
  21062090.092 7 110682114.472 7     91034.078          46.000  
  21671561.699 7 113884815.391 7     94572.133          46.000  
  21011009.045 7 110413674.759 7     95070.550          45.000  
  20506069.024 7 107760183.036 7     93363.454          45.000  
  24876458.140 6 130726717.853 6     95135.438          37.000  
  24333780.487 6 127874879.544 6     96190.704          38.000  
 14 01 11 12 22 34.9999999  0 10G01G04G10G11G13G17G20G23G31G32       0.012905074
  22651485.297 7 119034377.651 7     96280.276          43.000  
  21818436.283 8 114656723.534 8     90706.582          48.000  
  23266269.124 7 122265196.462 7     90517.740          43.000  
  25144408.846 6 132134728.325 6     97085.323          37.000  
  21061647.049 7 110679785.266 7     91034.611          46.000  
  21671790.037 7 113886024.313 7     94572.605          46.000  
  21011334.048 7 110415381.660 7     95070.674          45.000  
  20506069.486 7 107760183.467 7     93364.060          45.000  
  24876791.439 6 130728489.351 6     95135.017          36.000  
  24334319.218 6 127877706.595 6     96190.386          38.000  
 14 01 11 12 22 35.9999999  0 10G01G04G10G11G13G17G20G23G31G32       0.012964337
  22652040.196 7 119037299.664 7     96280.625          43.000  
  21817931.205 8 114654071.330 8     90706.911          48.000  
  23265728.235 7 122262355.071 7     90517.832          43.000  
  25145117.145 6 132138454.458 6     97084.112          37.000  
  21061205.779 7 110677461.373 7     91034.930          46.000  
  21672022.077 7 113887238.689 7     94573.436          46.000  
  21011660.401 7 110417093.655 7     95071.454          45.000  
  20506071.165 7 107760189.287 7     93364.942          45.000  
  24877131.468 6 130730266.216 6     95134.689          36.000  
  24334859.435 6 127880538.453 6     96190.509          38.000  
 14 01 11 12 22 36.9999999  0 10G01G04G10G11G13G17G20G23G31G32       0.013023600
  22652598.559 7 119040221.881 7     96280.871          43.000  
  21817426.174 8 114651419.375 8     90707.219          48.000  
  23265188.313 7 122259513.763 7     90517.801          43.000  
  25145826.772 6 132142180.577 6     97084.543          37.000  
  21060762.881 7 110675137.930 7     91035.864          46.000  
  21672252.694 7 113888453.591 7     94573.857          46.000  
  21011986.212 7 110418805.806 7     95070.982          45.000  
  20506071.792 7 107760195.587 7     93365.343          45.000  
  24877469.682 6 130732043.543 6     95136.259          36.000  
  24335399.067 6 127883370.239 6     96190.417          38.000  
 14 01 11 12 22 37.9999999  0 10G01G04G10G11G13G17G20G23G31G32       0.013082860
  22653153.473 7 119043148.976 7     96281.005          43.000  
  21816922.640 8 114648772.286 8     90707.188          48.000  
  23264646.818 7 122256677.187 7     90517.801          43.000  
  25146536.508 6 132145911.263 6     97083.722          37.000  
  21060321.895 7 110672819.533 7     91036.028          46.000  
  21672484.866 7 113889673.662 7     94574.617          46.000  
  21012312.559 7 110420522.772 7     95071.115          45.000  
  20506073.207 7 107760207.021 7     93365.866          45.000  
  24877810.760 6 130733825.919 6     95136.823          36.000  
  24335937.857 6 127886206.602 6     96190.530          38.000  
 14 01 11 12 22 38.9999999  0 10G01G04G10G11G13G17G20G23G31G32       0.013142122
  22653711.111 7 119046073.383 7     96281.682          43.000  
  21816418.793 8 114646122.550 8     90707.906          48.000  
  23264107.073 7 122253837.806 7     90518.160          43.000  
  25147244.551 6 132149639.054 6     97084.933          37.000  
  21059879.110 7 110670498.681 7     91037.044          46.000  
  21672715.444 7 113890891.361 7     94575.068          46.000  
  21012638.203 7 110422237.041 7     95071.792          45.000  
  20506074.541 7 107760216.031 7     93366.482          45.000  
  24878146.807 6 130735605.861 6     95137.080          36.000  
  24336477.410 6 127889039.973 6     96190.171          38.000  
 14 01 11 12 22 39.9999999  0 10G01G04G10G11G13G17G20G23G31G32       0.013201382
  22654266.382 7 119049001.351 7     96282.011          43.000  
  21815915.810 8 114643476.356 8     90708.122          48.000  
  23263566.263 7 122251001.828 7     90518.304          43.000  
  25147953.782 6 132153370.085 6     97083.794          37.000  
  21059438.181 7 110668181.583 7     91037.783          46.000  
  21672949.426 7 113892112.944 7     94576.074          46.000  
  21012966.987 7 110423954.813 7     95071.926          46.000  
  20506077.368 7 107760228.887 7     93367.498          45.000  
  24878492.150 6 130737389.654 6     95138.856          36.000  
  24337015.687 6 127891876.634 6     96191.023          39.000  
 14 01 11 12 22 40.9999999  0 10G01G04G10G11G13G17G20G23G31G32       0.013260646
  22654823.357 7 119051923.274 7     96282.134          43.000  
  21815411.308 8 114640824.182 8     90708.286          48.000  
  23263027.714 7 122248159.734 7     90518.633          43.000  
  25148665.248 6 132157094.866 6     97083.978          37.000  
  21058996.336 7 110665858.674 7     91037.537          46.000  
  21673179.271 7 113893328.787 7     94576.279          46.000  
  21013291.760 7 110425666.507 7     95072.080          46.000  
  20506079.474 7 107760235.955 7     93367.786          45.000  
  24878829.520 6 130739167.542 6     95138.004          36.000  
  24337556.182 6 127894706.956 6     96190.653          39.000  
 14 01 11 12 22 41.9999999  0 10G01G04G10G11G13G17G20G23G31G32       0.013319907
  22655379.609 7 119054850.397 7     96282.739          43.000  
  21814907.223 8 114638177.197 8     90709.004          48.000  
  23262487.257 7 122245322.615 7     90518.787          43.000  
  25149373.274 6 132160824.568 6     97084.368          37.000  
  21058555.897 7 110663541.150 7     91038.778          46.000  
  21673412.637 7 113894550.134 7     94577.131          46.000  
  21013618.274 7 110427383.349 7     95072.347          46.000  
  20506081.666 7 107760248.471 7     93368.309          45.000  
  24879168.126 6 130740950.930 6     95139.933          36.000  
  24338092.658 6 127897542.154 6     96191.176          39.000  
 14 01 11 12 22 42.9999999  0 10G01G04G10G11G13G17G20G23G31G32       0.013379169
  22655938.048 7 119057776.017 7     96282.688          43.000  
  21814402.862 8 114635528.760 8     90709.035          48.000  
  23261947.455 7 122242483.938 7     90518.704          43.000  
  25150083.066 6 132164552.550 6     97084.728          37.000  
  21058115.218 7 110661222.366 7     91038.902          46.000  
  21673643.877 7 113895770.308 7     94577.480          46.000  
  21013944.879 7 110429098.667 7     95072.819          46.000  
  20506084.962 7 107760259.793 7     93368.925          45.000  
  24879507.045 6 130742732.960 6     95138.445          36.000  
  24338629.745 6 127900375.565 6     96190.386          38.000  
 14 01 11 12 22 43.9999999  0 10G01G04G10G11G13G17G20G23G31G32       0.013438434
  22656493.600 7 119060697.462 7     96283.263          43.000  
  21813898.466 8 114632876.145 8     90709.600          48.000  
  23261405.879 7 122239640.934 7     90519.515          43.000  
  25150792.955 6 132168276.042 6     97085.497          37.000  
  21057673.022 7 110658899.612 7     91039.497          46.000  
  21673876.666 7 113896986.620 7     94578.640          46.000  
  21014270.870 7 110430809.766 7     95073.075          46.000  
  20506085.990 7 107760267.195 7     93369.520          45.000  
  24879846.759 6 130744511.167 6     95140.200          36.000  
  24339171.308 6 127903204.502 6     96190.602          38.000  
 14 01 11 12 22 44.9999999  0 10G01G04G10G11G13G17G20G23G31G32       0.013497694
  22657049.779 7 119063627.202 7     96283.838          43.000  
  21813395.466 8 114630231.858 8     90710.021          48.000  
  23260864.141 7 122236806.083 7     90519.546          43.000  
  25151504.552 6 132172007.511 6     97084.635          37.000  
  21057233.018 7 110656585.375 7     91040.421          46.000  
  21674108.239 7 113898211.547 7     94579.235          46.000  
  21014598.623 7 110432529.117 7     95073.352          46.000  
  20506088.648 7 107760283.164 7     93370.341          45.000  
  24880185.038 6 130746297.835 6     95140.662          36.000  
  24339710.404 6 127906041.467 6     96190.581          38.000  
 14 01 11 12 22 45.9999999  0 10G01G04G10G11G13G17G20G23G31G32       0.013556956
  22657606.370 7 119066554.106 7     96284.248          43.000  
  21812891.355 8 114627584.738 8     90710.318          48.000  
  23260324.123 7 122233968.267 7     90519.731          43.000  
  25152213.102 6 132175735.969 6     97084.799          37.000  
  21056791.750 7 110654268.498 7     91040.759          46.000  
  21674340.851 7 113899433.930 7     94579.862          46.000  
  21014924.493 7 110434245.573 7     95073.814          46.000  
  20506091.386 7 107760296.554 7     93370.854          45.000  
  24880524.720 6 130748081.878 6     95141.216          36.000  
  24340249.664 6 127908875.297 6     96190.848          38.000  
 14 01 11 12 22 46.9999999  0 10G01G04G10G11G13G17G20G23G31G32       0.013616220
  22658163.000 7 119069478.216 7     96284.289          43.000  
  21812387.291 8 114624934.866 8     90710.626          48.000  
  23259784.691 7 122231127.537 7     90519.813          43.000  
  25152916.695 6 132179461.370 6     97084.420          37.000  
  21056351.134 7 110651949.045 7     91041.344          46.000  
  21674572.994 7 113900653.849 7     94580.323          46.000  
  21015250.589 7 110435959.220 7     95073.753          46.000  
  20506093.079 7 107760307.446 7     93371.542          45.000  
  24880860.683 6 130749863.373 6     95141.699          36.000  
  24340788.149 6 127911706.056 6     96190.858          38.000  
 14 01 11 12 22 47.9999999  0 10G01G04G10G11G13G17G20G23G31G32       0.013675482
  22658721.231 7 119072405.741 7     96284.884          43.000  
  21811883.120 8 114622288.426 8     90710.924          48.000  
  23259245.505 7 122228290.095 7     90520.254          43.000  
  25153630.592 6 132183189.925 6     97084.933          37.000  
  21055908.737 7 110649633.233 7     91041.745          46.000  
  21674806.422 7 113901877.519 7     94581.237          46.000  
  21015577.710 7 110437676.256 7     95074.625          46.000  
  20506096.042 7 107760322.017 7     93372.178          45.000  
  24881203.625 6 130751648.549 6     95143.064          36.000  
  24341328.936 6 127914539.913 6     96191.228          38.000  
 14 01 11 12 22 48.9999999  0 10G01G04G10G11G13G17G20G23G31G32       0.013734744
  22659278.033 7 119075333.755 7     96285.398          43.000  
  21811379.229 8 114619642.462 8     90711.735          48.000  
  23258704.859 7 122225452.981 7     90520.665          43.000  
  25154342.244 6 132186918.682 6     97085.713          37.000  
  21055468.749 7 110647318.079 7     91042.545          46.000  
  21675039.234 7 113903101.955 7     94582.048          46.000  
  21015903.958 7 110439393.699 7     95075.179          46.000  
  20506098.952 7 107760337.310 7     93372.948          45.000  
  24881540.990 6 130753434.414 6     95143.033          36.000  
  24341868.807 6 127917373.951 6     96191.700          38.000  
 14 01 11 12 22 50.0000000  0 10G01G04G10G11G13G17G20G23G31G32       0.013794009
  22659834.213 7 119078257.497 7     96285.593          43.000  
  21810875.676 8 114616992.275 8     90711.950          48.000  
  23258166.042 7 122222611.476 7     90520.613          43.000  
  25155047.893 6 132190642.895 6     97086.062          37.000  
  21055028.375 7 110644998.896 7     91043.233          46.000  
  21675271.675 7 113904322.443 7     94582.725          46.000  
  21016229.769 7 110441106.845 7     95074.882          46.000  
  20506101.484 7 107760348.619 7     93373.564          45.000  
  24881885.391 6 130755216.252 6     95144.419          36.000  
  24342406.664 6 127920203.410 6     96191.207          38.000  
 14 01 11 12 22 51.0000000  0 10G01G04G10G11G13G17G20G23G31G32       0.013853272
  22660392.016 7 119081184.774 7     96286.085          43.000  
  21810371.846 8 114614345.631 8     90712.381          48.000  
  23257625.022 7 122219773.398 7     90521.157          43.000  
  25155754.360 6 132194370.404 6     97086.708          37.000  
  21054586.623 7 110642683.473 7     91043.746          46.000  
  21675504.470 7 113905546.786 7     94583.495          46.000  
  21016557.006 7 110442823.488 7     95075.652          46.000  
  20506103.980 7 107760363.734 7     93374.159          45.000  
  24882224.982 6 130757001.815 6     95143.854          36.000  
  24342946.856 6 127923036.140 6     96191.300          38.000  
 14 01 11 12 22 52.0000000  0 10G01G04G10G11G13G17G20G23G31G32       0.013912534
  22660948.653 7 119084113.922 7     96286.486          43.000  
  21809868.567 8 114611700.880 8     90712.956          48.000  
  23257082.990 7 122216936.998 7     90520.891          43.000  
  25156467.026 6 132198099.489 6     97086.052          37.000  
  21054146.596 7 110640370.117 7     91044.372          46.000  
  21675738.248 7 113906773.303 7     94584.090          46.000  
  21016884.210 7 110444541.956 7     95075.600          46.000  
  20506107.452 7 107760380.980 7     93374.724          45.000  
  24882566.699 6 130758789.549 6     95145.681          36.000  
  24343483.919 6 127925870.422 6     96191.587          38.000  
 14 01 11 12 22 53.0000000  0 10G01G04G10G11G13G17G20G23G31G32       0.013971797
  22661505.054 7 119087041.830 7     96286.537          43.000  
  21809363.728 8 114609054.935 8     90713.325          48.000  
  23256544.325 7 122214099.299 7     90521.404          43.000  
  25157178.464 6 132201827.118 6     97086.134          37.000  
  21053705.234 7 110638055.744 7     91044.947          46.000  
  21675971.285 7 113907998.917 7     94584.634          46.000  
  21017210.601 7 110446259.153 7     95076.083          46.000  
  20506110.555 7 107760397.285 7     93375.360          45.000  
  24882910.495 6 130760576.211 6     95145.106          36.000  
  24344022.414 6 127928703.233 6     96191.915          39.000  
 14 01 11 12 22 54.0000000  0 10G01G04G10G11G13G17G20G23G31G32       0.014031059
  22662061.632 7 119089971.667 7     96287.071          43.000  
  21808861.536 8 114606410.897 8     90713.705          48.000  
  23256004.665 7 122211263.364 7     90521.712          43.000  
  25157887.358 6 132205556.384 6     97086.247          38.000  
  21053265.039 7 110635743.501 7     91045.676          46.000  
  21676204.552 7 113909226.744 7     94585.342          46.000  
  21017537.353 7 110447978.249 7     95076.544          46.000  
  20506112.928 7 107760415.755 7     93376.027          45.000  
  24883249.189 6 130762365.063 6     95146.482          36.000  
  24344563.301 6 127931537.615 6     96191.546          39.000  
 14 01 11 12 22 55.0000000  0 10G01G04G10G11G13G17G20G23G31G32       0.014090323
  22662619.420 7 119092898.860 7     96287.892          43.000  
  21808357.907 8 114603764.308 8     90714.372          48.000  
  23255464.670 7 122208424.669 7     90522.481          43.000  
  25158595.507 6 132209282.731 6     97085.928          37.000  
  21052823.810 7 110633428.829 7     91046.548          46.000  
  21676438.711 7 113910452.261 7     94586.400          46.000  
  21017865.113 7 110449694.640 7     95077.181          46.000  
  20506116.563 7 107760431.860 7     93376.838          45.000  
  24883589.710 6 130764151.513 6     95146.882          36.000  
  24345101.348 6 127934369.070 6     96191.967          39.000  
 14 01 11 12 22 56.0000000  0 10G01G04G10G11G13G17G20G23G31G32       0.014149586
  22663178.333 7 119095827.969 7     96288.169          43.000  
  21807854.071 8 114601119.632 8     90714.434          48.000  
  23254924.819 7 122205587.736 7     90522.153          43.000  
  25159304.548 6 132213010.765 6     97085.959          37.000  
  21052385.080 7 110631116.287 7     91046.671          46.000  
  21676673.293 7 113911679.995 7     94586.595          46.000  
  21018190.947 7 110451412.905 7     95077.376          46.000  
  20506120.236 7 107760450.158 7     93377.300          45.000  
  24883927.790 6 130765940.135 6     95146.399          36.000  
  24345638.944 6 127937202.156 6     96191.669          39.000  
 14 01 11 12 22 57.0000000  0 10G01G04G10G11G13G17G20G23G31G32       0.014208852
  22663734.511 7 119098752.705 7     96288.477          43.000  
  21807350.931 8 114598470.612 8     90714.762          48.000  
  23254386.586 7 122202746.302 7     90522.061          43.000  
  25160016.320 6 132216734.156 6     97086.657          38.000  
  21051943.846 7 110628799.588 7     91047.225          46.000  
  21676906.721 7 113912903.667 7     94587.056          46.000  
  21018517.466 7 110453126.777 7     95077.694          46.000  
  20506122.934 7 107760464.335 7     93377.885          45.000  
  24884269.647 6 130767724.603 6     95147.970          36.000  
  24346180.221 6 127940030.586 6     96191.731          38.000  
 14 01 11 12 22 58.0000000  0 10G01G04G10G11G13G17G20G23G31G32       0.014268113
  22664291.267 7 119101685.478 7     96288.528          43.000  
  21806848.371 8 114595829.644 8     90714.845          48.000  
  23253845.677 7 122199912.808 7     90522.625          43.000  
  25160720.821 6 132220465.330 6     97086.585          38.000  
  21051504.757 7 110626491.158 7     91047.769          46.000  
  21677140.600 7 113914135.711 7     94587.929          46.000  
  21018845.317 7 110454848.644 7     95077.622          46.000  
  20506127.786 7 107760486.834 7     93378.439          45.000  
  24884610.022 6 130769517.286 6     95147.436          37.000  
  24346716.506 6 127942866.783 6     96191.536          38.000  
 14 01 11 12 22 59.0000000  0 10G01G04G10G11G13G17G20G23G31G32       0.014327375
  22664850.093 7 119104617.126 7     96289.216          43.000  
  21806345.029 8 114593187.561 8     90715.409          48.000  
  23253305.476 7 122197078.029 7     90522.800          43.000  
  25161433.240 6 132224195.120 6     97087.745          37.000  
  21051064.921 7 110624181.808 7     91048.498          46.000  
  21677374.324 7 113915366.937 7     94588.945          46.000  
  21019172.370 7 110456569.318 7     95078.361          46.000  
  20506130.762 7 107760508.474 7     93379.219          45.000  
  24884951.951 6 130771309.137 6     95148.883          37.000  
  24347256.132 6 127945701.534 6     96191.946          38.000  
 14 01 11 12 22 60.0000000  0 10G01G04G10G11G13G17G20G23G31G32       0.014386638
  22665406.778 7 119107547.527 7     96289.000          43.000  
  21805842.977 8 114590544.263 8     90715.994          48.000  
  23252766.726 7 122194241.879 7     90522.779          43.000  
  25162144.797 6 132227923.377 6     97087.057          37.000  
  21050625.459 7 110621871.418 7     91048.539          46.000  
  21677607.677 7 113916597.217 7     94589.222          46.000  
  21019499.373 7 110458288.733 7     95078.341          46.000  
  20506134.311 7 107760529.125 7     93379.527          45.000  
  24885290.820 6 130773099.906 6     95149.017          37.000  
  24347795.846 6 127948534.752 6     96191.967          38.000  
 14 01 11 12 23  1.0000000  0 10G01G04G10G11G13G17G20G23G31G32       0.014445901
  22665965.788 7 119110478.144 7     96289.390          43.000  
  21805339.828 8 114587901.195 8     90715.902          48.000  
  23252226.853 7 122191405.827 7     90522.810          43.000  
  25162854.057 6 132231651.562 6     97086.503          38.000  
  21050185.888 7 110619561.457 7     91049.360          46.000  
  21677843.226 7 113917828.036 7     94589.817          46.000  
  21019825.457 7 110460008.313 7     95078.464          46.000  
  20506138.337 7 107760550.278 7     93380.215          45.000  
  24885630.932 6 130774891.205 6     95149.653          37.000  
  24348334.784 6 127951367.889 6     96192.121          38.000  
 14 01 11 12 23  2.0000000  0 10G01G04G10G11G13G17G20G23G31G32       0.014505164
  22666524.102 7 119113409.106 7     96289.914          43.000  
  21804836.364 8 114585258.477 8     90716.446          48.000  
  23251687.972 7 122188569.990 7     90523.754          43.000  
  25163559.919 6 132235379.889 6     97087.273          38.000  
  21049746.800 7 110617252.035 7     91050.058          46.000  
  21678077.188 7 113919059.512 7     94590.659          46.000  
  21020151.975 7 110461728.180 7     95078.720          46.000  
  20506142.473 7 107760572.018 7     93380.738          45.000  
  24885971.520 6 130776683.009 6     95150.597          37.000  
  24348874.679 6 127954201.059 6     96191.946          38.000  
 14 01 11 12 23  3.0000000  0 10G01G04G10G11G13G17G20G23G31G32       0.014564428
  22667081.219 7 119116338.773 7     96290.211          43.000  
  21804333.614 8 114582614.507 8     90716.856          48.000  
  23251148.626 7 122185732.706 7     90523.374          43.000  
  25164268.913 6 132239106.677 6     97087.745          37.000  
  21049307.515 7 110614941.575 7     91050.520          46.000  
  21678310.961 7 113920289.997 7     94591.080          46.000  
  21020480.149 7 110463446.744 7     95079.234          46.000  
  20506145.662 7 107760592.772 7     93381.488          45.000  
  24886313.049 6 130778473.755 6     95150.823          37.000  
  24349413.132 6 127957032.649 6     96192.121          38.000  
 14 01 11 12 23  4.0000000  0 10G01G04G10G11G13G17G20G23G31G32       0.014623691
  22667639.323 7 119119270.630 7     96290.550          43.000  
  21803830.714 8 114579972.749 8     90717.534          48.000  
  23250608.343 7 122182897.503 7     90524.267          43.000  
  25164982.060 6 132242835.296 6     97086.606          37.000  
  21048868.112 7 110612633.496 7     91051.146          46.000  
  21678546.165 7 113921523.005 7     94592.075          46.000  
  21020806.447 7 110465167.452 7     95079.459          45.000  
  20506150.652 7 107760615.994 7     93382.555          45.000  
  24886655.041 6 130780266.936 6     95151.778          37.000  
  24349951.566 6 127959866.139 6     96192.069          38.000  
 14 01 11 12 23  5.0000000  0 10G01G04G10G11G13G17G20G23G31G32       0.014682955
  22668195.665 7 119122201.228 7     96290.920          43.000  
  21803327.955 8 114577329.733 8     90717.421          48.000  
  23250068.745 7 122180060.897 7     90523.672          43.000  
  25165693.022 6 132246562.425 6     97086.832          38.000  
  21048428.132 7 110610324.388 7     91051.413          46.000  
  21678780.808 7 113922755.060 7     94592.506          46.000  
  21021134.782 7 110466886.866 7     95079.572          45.000  
  20506155.065 7 107760638.188 7     93382.391          45.000  
  24886996.844 6 130782059.123 6     95152.506          37.000  
  24350491.800 6 127962698.089 6     96191.885          38.000  
 14 01 11 12 23  6.0000000  0 10G01G04G10G11G13G17G20G23G31G32       0.014742215
  22668754.027 7 119125138.439 7     96291.371          43.000  
  21802825.509 8 114574693.359 8     90717.924          48.000  
  23249528.863 7 122177230.796 7     90524.729          43.000  
  25166399.114 6 132250295.963 6     97087.242          38.000  
  21047990.782 7 110608022.096 7     91052.142          46.000  
  21679015.246 7 113923994.043 7     94593.286          46.000  
  21021462.271 7 110468612.832 7     95080.044          45.000  
  20506160.600 7 107760667.274 7     93383.253          45.000  
  24887337.275 6 130783858.099 6     95152.958          37.000  
  24351029.997 6 127965536.332 6     96192.234          38.000  
 14 01 11 12 23  7.0000000  0 10G01G04G10G11G13G17G20G23G31G32       0.014801480
  22669311.919 7 119128068.180 7     96291.628          43.000  
  21802322.406 8 114572049.538 8     90718.529          48.000  
  23248989.240 7 122174393.056 7     90524.842          43.000  
  25167110.197 6 132254021.729 6     97087.222          38.000  
  21047551.101 7 110605712.558 7     91053.322          46.000  
  21679250.414 7 113925225.858 7     94593.820          46.000  
  21021789.284 7 110470331.294 7     95080.701          45.000  
  20506164.006 7 107760689.171 7     93384.095          45.000  
  24887679.567 6 130785649.856 6     95153.584          37.000  
  24351570.908 6 127968366.835 6     96192.213          38.000  
 14 01 11 12 23  8.0000000  0 10G01G04G10G11G13G17G20G23G31G32       0.014860744
  22669869.231 7 119130999.875 7     96292.336          43.000  
  21801819.865 8 114569407.664 8     90718.981          48.000  
  23248450.917 7 122171557.154 7     90525.181          43.000  
  25167818.551 6 132257749.154 6     97087.909          38.000  
  21047111.636 7 110603405.155 7     91053.507          46.000  
  21679485.061 7 113926459.934 7     94594.908          46.000  
  21022116.468 7 110472051.659 7     95080.753          45.000  
  20506169.164 7 107760713.278 7     93384.823          45.000  
  24888021.129 6 130787443.777 6     95154.528          37.000  
  24352109.657 6 127971198.983 6     96192.203          38.000  
 14 01 11 12 23  9.0000000  0 10G01G04G10G11G13G17G20G23G31G32       0.014920008
  22670427.935 7 119133931.883 7     96292.603          43.000  
  21801316.633 8 114566766.165 8     90719.504          48.000  
  23247912.062 7 122168721.450 7     90525.109          43.000  
  25168528.444 6 132261476.667 6     97087.427          38.000  
  21046673.043 7 110601098.331 7     91053.948          46.000  
  21679720.401 7 113927694.657 7     94595.237          46.000  
  21022444.469 7 110473772.316 7     95081.297          45.000  
  20506174.247 7 107760737.990 7     93385.388          45.000  
  24888360.521 6 130789238.290 6     95154.631          38.000  
  24352648.414 6 127974031.171 6     96192.377          39.000  
 14 01 11 12 23 10.0000000  0 10G01G04G10G11G13G17G20G23G31G32       0.014979272
  22670985.587 7 119136864.364 7     96292.972          43.000  
  21800814.634 8 114564125.139 8     90719.556          48.000  
  23247370.606 7 122165886.079 7     90525.263          43.000  
  25169237.232 6 132265204.375 6     97087.027          38.000  
  21046235.527 7 110598792.169 7     91054.554          46.000  
  21679955.894 7 113928930.179 7     94596.027          46.000  
  21022772.359 7 110475493.390 7     95081.132          45.000  
  20506179.280 7 107760763.437 7     93386.188          45.000  
  24888702.515 6 130791033.480 6     95155.391          38.000  
  24353188.919 6 127976863.544 6     96192.644          39.000  
 14 01 11 12 23 11.0000000  0 10G01G04G10G11G13G17G20G23G31G32       0.015038534
  22671545.219 7 119139800.250 7     96293.342          43.000  
  21800312.527 8 114561487.552 8     90719.987          48.000  
  23246831.102 7 122163053.967 7     90525.807          43.000  
  25169949.297 6 132268935.298 6     97088.720          38.000  
  21045795.276 7 110596489.633 7     91055.005          46.000  
  21680190.380 7 113930169.411 7     94597.022          46.000  
  21023099.371 7 110477217.851 7     95081.871          45.000  
  20506184.629 7 107760792.548 7     93386.702          45.000  
  24889044.628 6 130792832.298 6     95156.930          38.000  
  24353727.159 6 127979699.013 6     96192.726          39.000  
 14 01 11 12 23 12.0000000  0 10G01G04G10G11G13G17G20G23G31G32       0.015097797
  22672102.343 7 119142734.959 7     96293.373          43.000  
  21799810.771 8 114558848.806 8     90720.253          48.000  
  23246293.068 7 122160220.578 7     90525.889          43.000  
  25170655.737 6 132272664.664 6     97087.170          37.000  
  21045358.459 7 110594186.147 7     91055.590          46.000  
  21680425.460 7 113931407.765 7     94597.105          46.000  
  21023428.242 7 110478941.079 7     95082.056          45.000  
  20506189.807 7 107760820.757 7     93387.143          45.000  
  24889386.756 6 130794630.192 6     95156.550          38.000  
  24354263.405 6 127982533.004 6     96192.429          39.000  
 14 01 11 12 23 13.0000000  0 10G01G04G10G11G13G17G20G23G31G32       0.015157060
  22672661.616 7 119145669.957 7     96294.040          43.000  
  21799308.505 8 114556210.379 8     90720.941          48.000  
  23245753.915 7 122157387.310 7     90525.684          43.000  
  25171362.767 6 132276394.133 6     97088.032          37.000  
  21044918.882 7 110591883.153 7     91056.268          46.000  
  21680660.844 7 113932646.715 7     94598.121          46.000  
  21023756.396 7 110480664.538 7     95082.549          45.000  
  20506195.850 7 107760849.515 7     93388.077          45.000  
  24889728.406 6 130796428.578 6     95157.443          38.000  
  24354802.696 6 127985366.995 6     96192.839          39.000  
 14 01 11 12 23 14.0000000  0 10G01G04G10G11G13G17G20G23G31G32       0.015216325
  22673219.989 7 119148602.228 7     96294.266          43.000  
  21798805.919 8 114553569.275 8     90721.085          48.000  
  23245213.463 7 122154551.214 7     90525.745          43.000  
  25172073.986 6 132280120.615 6     97088.340          37.000  
  21044480.165 7 110589577.681 7     91057.140          46.000  
  21680896.343 7 113933883.271 7     94598.726          46.000  
  21024083.649 7 110482385.265 7     95082.785          45.000  
  20506200.667 7 107760875.825 7     93388.529          45.000  
  24890072.250 6 130798224.488 6     95157.269          38.000  
  24355343.704 6 127988198.014 6     96193.229          39.000  
 14 01 11 12 23 15.0000000  0 10G01G04G10G11G13G17G20G23G31G32       0.015275587
  22673778.030 7 119151539.754 7     96294.892          43.000  
  21798303.955 8 114550933.435 8     90721.783          48.000  
  23244674.364 7 122151720.233 7     90526.525          44.000  
  25172789.767 6 132283852.074 6     97089.408          37.000  
  21044041.909 7 110587277.631 7     91057.859          46.000  
  21681132.138 7 113935125.383 7     94599.393          46.000  
  21024412.081 7 110484111.189 7     95083.195          45.000  
  20506206.533 7 107760907.653 7     93389.452          45.000  
  24890413.146 6 130800025.907 6     95158.521          38.000  
  24355882.986 6 127991033.962 6     96193.393          39.000  
 14 01 11 12 23 16.0000000  0 10G01G04G10G11G13G17G20G23G31G32       0.015334855
  22674337.365 7 119154468.080 7     96295.148          43.000  
  21797800.814 8 114548288.410 8     90722.347          48.000  
  23244135.582 7 122148879.911 7     90526.320          44.000  
  25173494.423 6 132287574.061 6     97088.987          37.000  
  21043603.852 7 110584968.624 7     91058.331          46.000  
  21681367.955 7 113936358.609 7     94600.194          46.000  
  21024738.942 7 110485827.851 7     95083.349          45.000  
  20506210.125 7 107760930.530 7     93389.647          45.000  
  24890756.709 6 130801818.343 6     95159.127          38.000  
  24356423.119 6 127993860.378 6     96192.860          39.000  
 14 01 11 12 23 17.0000000  0 10G01G04G10G11G13G17G20G23G31G32       0.015394118
  22674896.728 7 119157404.549 7     96295.425          43.000  
  21797299.230 8 114545651.567 8     90722.686          48.000  
  23243593.956 7 122146047.647 7     90527.244          44.000  
  25174198.494 6 132291303.977 6     97088.966          37.000  
  21043167.002 7 110582667.964 7     91058.741          46.000  
  21681604.241 7 113937600.300 7     94600.861          46.000  
  21025066.019 7 110487552.654 7     95084.006          45.000  
  20506216.471 7 107760961.878 7     93390.971          45.000  
  24891100.534 6 130803619.156 6     95159.506          38.000  
  24356964.561 6 127996694.674 6     96192.891          39.000  
 14 01 11 12 23 18.0000000  0 10G01G04G10G11G13G17G20G23G31G32       0.015453383
  22675453.686 7 119160338.385 7     96295.672          43.000  
  21796797.715 8 114543012.089 8     90722.419          48.000  
  23243056.366 7 122143212.595 7     90527.418          43.000  
  25174912.470 6 132295030.950 6     97088.330          37.000  
  21042728.554 7 110580364.900 7     91059.172          46.000  
  21681840.277 7 113938839.678 7     94601.631          46.000  
  21025394.296 7 110489274.760 7     95084.016          45.000  
  20506221.788 7 107760990.818 7     93391.238          45.000  
  24891439.142 6 130805417.554 6     95160.892          38.000  
  24357503.738 6 127999526.072 6     96193.527          39.000  
 14 01 11 12 23 19.0000000  0 10G01G04G10G11G13G17G20G23G31G32       0.015512644
  22676012.094 7 119163278.837 7     96295.959          43.000  
  21796295.186 8 114540379.282 8     90723.569          48.000  
  23242517.344 7 122140384.012 7     90526.895          43.000  
  25175624.617 6 132298764.308 6     97089.274          37.000  
  21042290.833 7 110578068.662 7     91059.911          46.000  
  21682078.011 7 113940085.979 7     94602.298          46.000  
  21025724.014 7 110491003.439 7     95084.191          45.000  
  20506228.607 7 107761026.652 7     93391.587          45.000  
  24891782.859 6 130807222.799 6     95160.748          38.000  
  24358039.354 6 128002363.749 6     96193.393          39.000  
 14 01 11 12 23 20.0000000  0 10G01G04G10G11G13G17G20G23G31G32       0.015571908
  22676571.947 7 119166214.888 7     96296.431          43.000  
  21795794.489 8 114537742.104 8     90723.599          48.000  
  23241978.219 7 122137550.895 7     90527.172          43.000  
  25176333.014 6 132302492.956 6     97089.942          37.000  
  21041852.696 7 110575768.236 7     91060.609          46.000  
  21682312.874 7 113941328.194 7     94602.975          46.000  
  21026051.746 7 110492727.682 7     95084.632          45.000  
  20506234.832 7 107761058.366 7     93392.326          45.000  
  24892124.253 6 130809023.836 6     95160.933          38.000  
  24358579.602 6 128005196.771 6     96193.445          39.000  
 14 01 11 12 23 21.0000000  0 10G01G04G10G11G13G17G20G23G31G32       0.015631173
  22677130.245 7 119169149.762 7     96296.965          43.000  
  21795292.807 8 114535103.746 8     90723.989          48.000  
  23241440.754 7 122134716.497 7     90528.085          43.000  
  25177038.664 6 132306220.174 6     97089.244          37.000  
  21041414.184 7 110573466.842 7     91061.307          46.000  
  21682549.286 7 113942569.546 7     94603.797          46.000  
  21026379.818 7 110494450.716 7     95085.464          45.000  
  20506240.122 7 107761089.165 7     93393.188          45.000  
  24892467.189 6 130810823.977 6     95162.175          38.000  
  24359116.902 6 128008028.303 6     96193.609          39.000  
 14 01 11 12 23 22.0000000  0 10G01G04G10G11G13G17G20G23G31G32       0.015690437
  22677690.436 7 119172086.587 7     96297.170          43.000  
  21794791.504 8 114532467.381 8     90724.215          48.000  
  23240900.590 7 122131883.916 7     90528.147          43.000  
  25177749.973 6 132309949.128 6     97089.654          37.000  
  21040976.280 7 110571167.639 7     91061.533          46.000  
  21682786.130 7 113943813.172 7     94604.176          46.000  
  21026708.823 7 110496175.646 7     95085.792          45.000  
  20506247.550 7 107761122.200 7     93393.568          45.000  
  24892806.734 6 130812626.299 6     95162.832          38.000  
  24359656.417 6 128010861.473 6     96193.219          39.000  
 14 01 11 12 23 23.0000000  0 10G01G04G10G11G13G17G20G23G31G32       0.015749701
  22678247.632 7 119175023.669 7     96297.447          43.000  
  21794289.299 8 114529831.276 8     90724.287          48.000  
  23240361.970 7 122129051.449 7     90528.178          43.000  
  25178462.599 6 132313678.004 6     97088.166          37.000  
  21040539.601 7 110568868.875 7     91062.272          46.000  
  21683022.131 7 113945057.365 7     94604.864          45.000  
  21027036.539 7 110497900.809 7     95085.597          45.000  
  20506253.745 7 107761155.753 7     93394.174          45.000  
  24893152.643 6 130814429.064 6     95162.401          38.000  
  24360195.929 6 128013694.626 6     96193.424          39.000  
 14 01 11 12 23 24.0000000  0 10G01G04G10G11G13G17G20G23G31G32       0.015808964
  22678807.114 7 119177962.766 7     96298.022          43.000  
  21793788.058 8 114527197.235 8     90725.139          48.000  
  23239822.001 7 122126220.889 7     90528.517          43.000  
  25179169.664 6 132317408.656 6     97088.299          37.000  
  21040102.402 7 110566572.379 7     91062.734          46.000  
  21683260.857 7 113946303.880 7     94605.346          45.000  
  21027364.819 7 110499627.929 7     95085.833          46.000  
  20506260.376 7 107761191.598 7     93395.077          45.000  
  24893495.184 6 130816234.128 6     95164.412          38.000  
  24360735.007 6 128016529.502 6     96193.866          39.000  
 14 01 11 12 23 24.9999999  0 10G01G04G10G11G13G17G20G23G31G32       0.015868231
  22679366.599 7 119180895.880 7     96297.950          43.000  
  21793285.875 8 114524557.244 8     90725.642          48.000  
  23239282.580 7 122123384.216 7     90528.486          43.000  
  25179877.076 6 132321133.132 6     97089.008          37.000  
  21039666.387 7 110564270.104 7     91063.216          46.000  
  21683496.226 7 113947544.752 7     94605.993          45.000  
  21027693.672 7 110501349.064 7     95086.274          46.000  
  20506266.110 7 107761221.732 7     93395.416          45.000  
  24893838.718 6 130818033.413 6     95163.786          38.000  
  24361274.606 6 128019358.115 6     96193.332          39.000  
 14 01 11 12 23 25.9999999  0 10G01G04G10G11G13G17G20G23G31G32       0.015927495
  22679925.536 7 119183834.113 7     96298.422          43.000  
  21792785.049 8 114521922.385 8     90725.929          48.000  
  23238744.110 7 122120552.538 7     90528.742          43.000  
  25180588.638 6 132324862.411 6     97089.110          37.000  
  21039227.963 7 110561973.172 7     91063.914          46.000  
  21683733.766 7 113948791.031 7     94606.824          45.000  
  21028022.152 7 110503075.239 7     95086.305          46.000  
  20506272.676 7 107761257.239 7     93395.980          45.000  
  24894181.751 6 130819838.062 6     95165.100          38.000  
  24361812.461 6 128022191.559 6     96193.691          39.000  
 14 01 11 12 23 26.9999999  0 10G01G04G10G11G13G17G20G23G31G32       0.015986759
  22680484.720 7 119186772.646 7     96298.966          43.000  
  21792282.761 8 114519287.845 8     90726.443          48.000  
  23238204.528 7 122117721.012 7     90529.399          43.000  
  25181297.538 6 132328591.710 6     97089.079          37.000  
  21038791.917 7 110559676.734 7     91064.510          46.000  
  21683971.612 7 113950037.919 7     94607.379          45.000  
  21028350.116 7 110504801.700 7     95086.849          46.000  
  20506279.350 7 107761293.310 7     93396.606          45.000  
  24894525.650 6 130821643.264 6     95166.147          38.000  
  24362350.699 6 128025025.023 6     96193.814          38.000  
 14 01 11 12 23 27.9999999  0 10G01G04G10G11G13G17G20G23G31G32       0.016046023
  22681044.187 7 119189711.668 7     96299.592          43.000  
  21791781.903 8 114516653.819 8     90726.802          48.000  
  23237666.154 7 122114889.838 7     90529.502          43.000  
  25182006.867 6 132332321.258 6     97090.208          37.000  
  21038354.674 7 110557381.006 7     91064.930          46.000  
  21684208.279 7 113951285.612 7     94608.467          46.000  
  21028677.971 7 110506528.590 7     95087.260          46.000  
  20506286.932 7 107761330.153 7     93397.632          45.000  
  24894869.484 6 130823449.121 6     95166.568          38.000  
  24362888.395 6 128027858.634 6     96194.112          38.000  
 14 01 11 12 23 29.0000000  0 10G01G04G10G11G13G17G20G23G31G32       0.016105289
  22681603.740 7 119192648.137 7     96299.818          43.000  
  21791279.998 8 114514017.289 8     90727.459          48.000  
  23237127.271 7 122112055.989 7     90530.066          43.000  
  25182718.520 6 132336048.019 6     97089.172          37.000  
  21037917.366 7 110555082.936 7     91065.628          46.000  
  21684444.902 7 113952531.076 7     94609.442          46.000  
  21029005.714 7 110508252.890 7     95087.773          46.000  
  20506294.840 7 107761364.709 7     93398.474          45.000  
  24895212.306 6 130825252.666 6     95166.886          38.000  
  24363429.936 6 128030689.447 6     96194.256          38.000  
 14 01 11 12 23 30.0000000  0 10G01G04G10G11G13G17G20G23G31G32       0.016164551
  22682162.472 7 119195591.292 7     96300.516          43.000  
  21790778.606 7 114511387.456 7     90727.951          47.000  
  23236588.306 7 122109228.711 7     90530.220          43.000  
  25183427.984 6 132339781.279 6     97090.814          37.000  
  21037480.045 7 110552791.800 7     91066.449          46.000  
  21684683.237 7 113953783.535 7     94609.986          46.000  
  21029335.296 7 110509983.858 7     95088.574          46.000  
  20506303.119 7 107761406.218 7     93399.059          45.000  
  24895556.449 6 130827063.147 6     95167.974          38.000  
  24363968.692 6 128033526.632 6     96194.225          38.000  
 14 01 11 12 23 31.0000000  0 10G01G04G10G11G13G17G20G23G31G32       0.016223817
  22682721.012 7 119198528.440 7     96300.927          43.000  
  21790276.259 7 114508751.607 7     90727.715          47.000  
  23236051.217 7 122106395.286 7     90530.600          43.000  
  25184136.991 6 132343508.135 6     97091.214          37.000  
  21037044.466 7 110550494.820 7     91066.993          46.000  
  21684920.105 7 113955030.284 7     94610.591          46.000  
  21029663.913 7 110511708.748 7     95088.533          46.000  
  20506309.922 7 107761441.967 7     93399.470          45.000  
  24895898.920 6 130828867.847 6     95168.928          38.000  
  24364508.717 6 128036357.481 6     96193.855          38.000  
 14 01 11 12 23 32.0000000  0 10G01G04G10G11G13G17G20G23G31G32       0.016283082
  22683281.031 7 119201467.358 7     96301.029          43.000  
  21789776.546 7 114506117.600 7     90728.290          47.000  
  23235508.727 7 122103563.483 7     90530.323          43.000  
  25184847.047 6 132347236.506 6     97090.917          37.000  
  21036607.562 7 110548199.872 7     91067.691          46.000  
  21685157.944 7 113956279.136 7     94611.269          46.000  
  21029992.671 7 110513435.383 7     95088.686          46.000  
  20506317.500 7 107761479.791 7     93400.065          45.000  
  24896245.007 6 130830674.544 6     95169.113          38.000  
  24365047.700 6 128039189.857 6     96194.348          39.000  
 14 01 11 12 23 33.0000000  0 10G01G04G10G11G13G17G20G23G31G32       0.016342346
  22683839.715 7 119204408.265 7     96301.214          43.000  
  21789275.503 7 114503485.596 7     90728.608          47.000  
  23234971.358 7 122100733.588 7     90530.497          43.000  
  25185555.535 6 132350966.632 6     97090.834          37.000  
  21036170.502 7 110545907.108 7     91067.681          46.000  
  21685396.791 7 113957530.289 7     94611.925          46.000  
  21030321.420 7 110515163.973 7     95088.994          46.000  
  20506324.176 7 107761519.870 7     93400.825          45.000  
  24896587.145 6 130832483.490 6     95169.462          38.000  
  24365588.907 6 128042023.919 6     96193.999          39.000  
 14 01 11 12 23 34.0000000  0 10G01G04G10G11G13G17G20G23G31G32       0.016401611
  22684398.911 7 119207347.861 7     96301.625          43.000  
  21788774.024 7 114500852.311 7     90729.111          47.000  
  23234433.898 7 122097902.218 7     90530.682          43.000  
  25186266.578 6 132354695.192 6     97090.783          37.000  
  21035734.950 7 110543613.265 7     91068.595          46.000  
  21685635.067 7 113958780.438 7     94612.593          46.000  
  21030650.293 7 110516891.211 7     95089.343          46.000  
  20506330.462 7 107761558.902 7     93401.215          45.000  
  24896933.069 6 130834291.333 6     95170.437          38.000  
  24366125.628 6 128044856.409 6     96194.841          39.000  
 14 01 11 12 23 35.0000000  0 10G01G04G10G11G13G17G20G23G31G32       0.016460875
  22684960.209 7 119210289.502 7     96301.974          43.000  
  21788272.748 7 114498221.084 7     90729.563          47.000  
  23233892.998 7 122095072.771 7     90531.082          43.000  
  25186976.241 6 132358425.494 6     97089.911          37.000  
  21035299.256 7 110541321.678 7     91069.221          46.000  
  21685873.413 7 113960032.953 7     94613.198          46.000  
  21030979.549 7 110518620.463 7     95089.939          46.000  
  20506337.948 7 107761600.241 7     93401.882          45.000  
  24897277.146 6 130836101.471 6     95170.458          38.000  
  24366664.768 6 128047690.607 6     96194.512          39.000  
 14 01 11 12 23 36.0000000  0 10G01G04G10G11G13G17G20G23G31G32       0.016520141
  22685518.697 7 119213228.375 7     96302.507          43.000  
  21787772.662 7 114495587.114 7     90729.860          47.000  
  23233354.595 7 122092240.441 7     90531.473          43.000  
  25187685.145 6 132362152.809 6     97090.434          37.000  
  21034862.506 7 110539027.539 7     91069.960          46.000  
  21686110.909 7 113961283.001 7     94613.927          46.000  
  21031307.694 7 110520346.878 7     95089.733          46.000  
  20506347.244 7 107761639.096 7     93402.621          45.000  
  24897622.637 6 130837909.037 6     95170.376          38.000  
  24367203.329 6 128050521.763 6     96194.687          39.000  
 14 01 11 12 23 37.0000000  0 10G01G04G10G11G13G17G20G23G31G32       0.016579407
  22686076.687 7 119216167.629 7     96302.774          43.000  
  21787272.465 7 114492953.563 7     90730.332          47.000  
  23232816.241 7 122089408.371 7     90532.242          43.000  
  25188399.770 6 132365880.193 6     97089.120          37.000  
  21034427.012 7 110536734.003 7     91070.904          46.000  
  21686349.870 7 113962533.749 7     94614.563          46.000  
  21031636.482 7 110522073.669 7     95090.421          46.000  
  20506353.809 7 107761678.594 7     93403.411          45.000  
  24897967.303 6 130839717.273 6     95172.593          38.000  
  24367741.333 6 128053352.995 6     96194.882          39.000  
 14 01 11 12 23 38.0000000  0 10G01G04G10G11G13G17G20G23G31G32       0.016638672
  22686638.267 7 119219108.753 7     96303.041          43.000  
  21786771.679 7 114490321.915 7     90730.866          47.000  
  23232276.880 7 122086578.010 7     90532.037          43.000  
  25189107.672 6 132369609.243 6     97090.906          37.000  
  21033989.251 7 110534442.553 7     91070.760          46.000  
  21686587.915 7 113963786.684 7     94615.148          46.000  
  21031965.807 7 110523802.285 7     95090.832          46.000  
  20506362.878 7 107761720.250 7     93403.822          45.000  
  24898310.074 6 130841527.546 6     95172.346          38.000  
  24368281.347 6 128056185.785 6     96194.338          39.000  
 14 01 11 12 23 39.0000000  0 10G01G04G10G11G13G17G20G23G31G32       0.016697935
  22687198.245 7 119222053.459 7     96303.883          43.000  
  21786270.619 7 114487693.829 7     90730.918          47.000  
  23231740.076 7 122083751.089 7     90532.078          43.000  
  25189817.152 6 132373341.582 6     97091.450          37.000  
  21033553.158 7 110532154.870 7     91071.622          46.000  
  21686826.887 7 113965043.489 7     94615.785          46.000  
  21032295.418 7 110525534.405 7     95090.965          46.000  
  20506371.341 7 107761765.725 7     93404.694          45.000  
  24898653.580 6 130843341.681 6     95173.054          38.000  
  24368820.659 6 128059021.891 6     96194.759          39.000  
 14 01 11 12 23 40.0000000  0 10G01G04G10G11G13G17G20G23G31G32       0.016757202
  22687756.339 7 119224992.265 7     96304.006          43.000  
  21785769.592 7 114485059.913 7     90731.420          47.000  
  23231200.991 7 122080918.177 7     90532.427          43.000  
  25190524.316 6 132377067.755 6     97091.337          37.000  
  21033117.134 7 110529861.549 7     91072.023          46.000  
  21687065.754 7 113966294.745 7     94616.698          46.000  
  21032624.481 7 110527260.638 7     95091.868          46.000  
  20506378.738 7 107761805.596 7     93405.310          45.000  
  24899000.954 6 130845150.145 6     95174.399          38.000  
  24369360.510 6 128061851.827 6     96195.149          39.000  
 14 01 11 12 23 41.0000000  0 10G01G04G10G11G13G17G20G23G31G32       0.016816469
  22688317.385 7 119227931.577 7     96304.427          43.000  
  21785268.665 7 114482426.522 7     90731.964          47.000  
  23230663.308 7 122078085.634 7     90532.920          43.000  
  25191233.429 6 132380794.171 6     97091.645          37.000  
  21032680.486 7 110527568.946 7     91072.721          46.000  
  21687304.392 7 113967546.796 7     94617.458          46.000  
  21032952.672 7 110528987.297 7     95091.714          46.000  
  20506386.663 7 107761846.241 7     93406.080          45.000  
  24899346.366 6 130846959.298 6     95173.968          38.000  
  24369898.868 6 128064681.917 6     96194.902          39.000  
 14 01 11 12 23 42.0000000  0 10G01G04G10G11G13G17G20G23G31G32       0.016875734
  22688876.998 7 119230874.364 7     96304.673          43.000  
  21784767.260 7 114479796.623 7     90732.395          47.000  
  23230124.924 7 122075256.408 7     90533.002          43.000  
  25191946.196 6 132384523.788 6     97091.768          37.000  
  21032245.111 7 110525280.036 7     91073.583          46.000  
  21687543.746 7 113968802.612 7     94617.632          46.000  
  21033282.660 7 110530717.393 7     95092.279          46.000  
  20506394.914 7 107761890.600 7     93406.357          45.000  
  24899691.157 6 130848772.186 6     95175.271          38.000  
  24370437.650 6 128067515.238 6     96195.015          39.000  
 14 01 11 12 23 43.0000000  0 10G01G04G10G11G13G17G20G23G31G32       0.016934997
  22689436.849 7 119233820.403 7     96304.888          43.000  
  21784268.008 7 114477170.036 7     90732.642          47.000  
  23229587.904 7 122072430.351 7     90532.879          43.000  
  25192656.289 6 132388256.347 6     97091.050          38.000  
  21031809.636 7 110522994.601 7     91073.798          46.000  
  21687782.837 7 113970062.044 7     94618.412          46.000  
  21033612.309 7 110532450.714 7     95091.827          46.000  
  20506404.796 7 107761938.534 7     93406.880          45.000  
  24900033.750 6 130850588.526 6     95174.604          39.000  
  24370974.902 6 128070351.512 6     96194.728          39.000  
 14 01 11 12 23 44.0000000  0 10G01G04G10G11G13G17G20G23G31G32       0.016994263
  22689997.018 7 119236762.112 7     96305.371          43.000  
  21783766.601 7 114474539.125 7     90733.093          47.000  
  23229048.699 7 122069599.810 7     90533.330          43.000  
  25193360.381 6 132391984.374 6     97091.050          38.000  
  21031373.946 7 110520705.036 7     91074.332          46.000  
  21688021.917 7 113971317.417 7     94619.028          46.000  
  21033940.747 7 110534179.667 7     95092.679          46.000  
  20506412.377 7 107761982.372 7     93407.711          45.000  
  24900378.617 6 130852400.812 6     95175.939          39.000  
  24371511.654 6 128073183.164 6     96194.810          38.000  
 14 01 11 12 23 44.9999999  0 10G01G04G10G11G13G17G20G23G31G32       0.017053527
  22690555.186 7 119239707.304 7     96305.361          43.000  
  21783268.340 7 114471911.745 7     90733.329          47.000  
  23228509.758 7 122066772.650 7     90533.515          43.000  
  25194074.417 6 132395715.660 6     97090.958          38.000  
  21030938.967 7 110518419.204 7     91075.112          46.000  
  21688261.536 7 113972576.625 7     94619.664          46.000  
  21034270.224 7 110535912.080 7     95092.812          46.000  
  20506421.058 7 107762029.991 7     93408.276          45.000  
  24900725.519 6 130854216.796 6     95176.051          39.000  
  24372055.106 6 128076018.023 6     96194.759          38.000  
 14 01 11 12 23 45.9999999  0 10G01G04G10G11G13G17G20G23G31G32       0.017112793
  22691116.073 7 119242649.785 7     96305.966          43.000  
  21782766.519 7 114469281.659 7     90733.607          47.000  
  23227970.456 7 122063942.603 7     90533.484          43.000  
  25194786.166 6 132399443.931 6     97091.214          38.000  
  21030504.651 7 110516130.858 7     91075.697          46.000  
  21688500.694 7 113973833.406 7     94620.629          46.000  
  21034599.747 7 110537641.732 7     95093.695          46.000  
  20506429.840 7 107762075.139 7     93408.830          45.000  
  24901070.043 6 130856030.282 6     95176.862          39.000  
  24372595.122 6 128078849.828 6     96194.882          38.000  
 14 01 11 12 23 45.9999999  4  1
END OF FILE                                                 COMMENT             
